# LAS format log file from PETREL
# Project units are specified as depth units
#==================================================================
~Version information
VERS.   2.0:
WRAP.   NO:
#==================================================================
~Well
STRT .m      2901.1352539 :
STOP .m      2975.8112793 :
STEP .m     0.00000000 :
NULL .        -999.250000 :
COMP.           : COMPANY
WELL.  7/7-4 Orange   : WELL
FLD.            : FIELD
LOC.            : LOCATION
SRVC.           : SERVICE COMPANY
DATE.  2018-09-11 21:49:23   : Log Export Date {yyyy-MM-dd HH:mm:ss}
PROV.           : PROVINCE
UWI.   7/7-4   : UNIQUE WELL ID
API.            : API NUMBER
#==================================================================
~Curve
DEPT .m                   : DEPTH
CALI .in                  : CALI
BS .in                    : BS
DRHO .g/cm3               : DRHO
THOR .ppm                 : THOR
NPHI .m3/m3               : NPHI
RHOB .g/cm3               : RHOB
PEF .b/e                  : PEF
GR .gAPI                  : GR
URAN .ppm                 : URAN
DTC .us/ft                : DTC
DTS .us/ft                : DTS
RDEP .ohm.m               : RDEP
RMIC .ohm.m               : RMIC
RMED .ohm.m               : RMED
~Parameter
#==================================================================
~Ascii
# ...
 2938.6254883 2.9279000759 12.500000000 0.0860112235 6.9855999947 0.3580590189 2.2150304317 15.051099777 65.439872742 1.8888000250 109.05020142 249.63020325 0.7354000211 0.6995000243 0.7214999795
 2938.7778320 2.9368996620 12.500000000 0.0799173042 6.7853999138 0.3433280289 2.2004384995 15.002400398 63.457466125 1.9161000252 106.72940063 244.44902039 0.7473000288 0.7466999888 0.7332000136
 2938.9304199 2.9316999912 12.500000000 0.0773028806 6.1244997978 0.3188000023 2.1977996826 15.163599968 57.375949860 1.8344000578 104.96089935 235.02400208 0.7605999708 0.9369000196 0.7494000196
 2939.0827637 2.9193000793 12.500000000 0.0769996792 5.7685999870 0.3008149862 2.2040865421 15.445199966 49.793552399 1.3709000349 103.76450348 229.12359619 0.7753000259 1.2935999632 0.7702999711
 2939.2351074 2.9041998386 12.500000000 0.0811897442 5.8864002228 0.2927599847 2.2250571251 15.713299751 45.966022491 1.0284999609 103.43620300 223.66760254 0.7910000086 1.2148000002 0.7955999970
 2939.3874512 2.8945000172 12.500000000 0.0954456851 6.1869001389 0.2811860144 2.2722299099 15.951399803 47.816638947 1.1018999815 103.45509338 219.87390137 0.8072000146 0.9444000125 0.8246999979
 2939.5400391 2.8880999088 12.500000000 0.1125753224 6.6308999062 0.2745040059 2.3200349808 16.131099701 52.810493469 1.3299000263 103.75830078 213.91859436 0.8231999874 0.8011999726 0.8571000099
 2939.6923828 2.8725001812 12.500000000 0.1137067303 6.8605999947 0.2973060012 2.3156335354 16.263299942 56.923610687 1.5692000389 103.31150818 206.18099976 0.8381999731 0.8057000041 0.8913000226
 2939.8447266 2.8615999222 12.500000000 0.0989266112 6.8020000458 0.3394550085 2.2647895813 16.375600815 57.281333923 1.6771999598 101.04280090 198.91549683 0.8511999846 0.9370999932 0.9251000285
 2939.9970703 2.8712999821 12.500000000 0.0847396180 6.2381000519 0.3404249847 2.2201213837 16.360500336 53.096935272 1.7185000181 96.818191528 194.45501709 0.8612999916 1.1337000132 0.9550999999
 2940.1496582 2.8917999268 12.500000000 0.0795048028 5.3747000694 0.2948980033 2.2066085339 16.174499512 46.766239166 1.5693999529 93.432998657 195.87091064 0.8676999807 1.6402000189 0.9760000110
 2940.3020020 2.9007999897 12.500000000 0.0822929516 4.9036002159 0.2465220094 2.2189724445 16.021799088 41.146701813 1.3101999760 93.887100220 205.71049500 0.8697000146 2.3956999779 0.9829000235
 2940.4543457 2.8891003132 12.500000000 0.0901855752 4.7902998924 0.2143020034 2.2445554733 16.025899887 38.787773132 1.1714999676 96.752990723 222.12539673 0.8675000072 2.8375999928 0.9739999771
 2940.6066895 2.8689999580 12.500000000 0.1018801257 4.9753999710 0.2036179900 2.2753498554 16.080299377 41.980770111 1.0820000172 101.16390228 237.58378601 0.8612999916 1.8410999775 0.9499999881
 2940.7590332 2.8652999401 12.500000000 0.1139634624 5.6935000420 0.2152169943 2.3011281490 15.972100258 49.937175751 1.1617000103 107.68820190 251.37339783 0.8514999747 1.1008000374 0.9138000011
 2940.9116211 2.8831999302 12.500000000 0.1179987192 6.2442998886 0.2575910091 2.3028109074 15.662099838 57.746006012 1.4651999474 109.70739746 259.99099731 0.8386999965 0.7609000206 0.8719000220
 2941.0639648 2.9065999985 12.500000000 0.1088195518 6.2645001411 0.3279040158 2.2716608047 15.399399757 62.197372437 1.6533999443 112.41619873 263.20199585 0.8242999911 0.7032999992 0.8306999803
 2941.2163086 2.9149999619 12.500000000 0.0925266072 6.2371001244 0.3839400113 2.2279689312 15.352600098 64.028968811 1.7002999783 113.29969788 260.66610718 0.8088999987 0.6847000122 0.7943999767
 2941.3686523 2.8996999264 12.500000000 0.0797351450 6.3695001602 0.3885029852 2.1989741325 15.420200348 63.872711182 1.6871999502 113.60929871 255.10350037 0.7936000228 0.6848000288 0.7655000091
 2941.5212402 2.8759996891 12.500000000 0.0756028816 6.6756000519 0.3711610138 2.1942982674 15.487799644 62.191898346 1.5225000381 112.78829956 249.50212097 0.7789000273 0.7037000060 0.7447000146
 2941.6735840 2.8708999157 12.500000000 0.0786929503 6.9621000290 0.3564440012 2.2056782246 15.587100029 60.360137939 1.3210999966 111.23130035 243.24299622 0.7653999925 0.7322999835 0.7312999964
 2941.8259277  -999.250000 12.500000000 0.0847897381 7.2564001083 0.3377080262 2.2198777199 15.712599754 59.245483398 1.1311999559 109.80650330 240.17869568 0.7533000112 0.7580000162 0.7242000103
 2941.9782715  -999.250000 12.500000000 0.0914782733 7.6944999695 0.3137809932 2.2324604988 15.760999680 59.175418854 0.9032999873 109.03739929 240.11051941 0.7426999807 0.7987999916 0.7215999961
 2942.1308594  -999.250000 12.500000000 0.0983894169 8.2170000076 0.3047589958 2.2446813583 15.661999702 59.981506348 0.6736000180 108.67330170 241.15150452 0.7336000204 0.8756999969 0.7218000293
 2942.2832031  -999.250000 12.500000000 0.1013977602 8.6902999878 0.3238849938 2.2490983009 15.457400322 60.532917023 0.4945000112 108.98670197 243.10380554 0.7257999778 0.8837000132 0.7231000066
 2942.4355469  -999.250000 12.500000000 0.0975089744 8.9456996918 0.3507840037 2.2389214039 15.241999626 60.531703949 0.3982000053 109.23770142 245.17590332 0.7192000151 0.8284000158 0.7245000005
 2942.5878906  -999.250000 12.500000000 0.0900121853 8.9130001068 0.3489660025 2.2234237194 15.145799637 60.445236206 0.4104000032 109.90499878 248.39460754 0.7135999799 0.7957000136 0.7250999808
 2942.7402344  -999.250000 12.500000000 0.0838179514 8.4921998978 0.3226559758 2.2151193619 15.285499573 59.938228607 0.6448000073 110.48590088 249.47200012 0.7087000012 0.7915999889 0.7246000171
 2942.8928223  -999.250000 12.500000000 0.0793067291 7.6512994766 0.3159660101 2.2125036716 15.552100182 59.007091522 1.0737999678 110.85379791 249.34991455 0.7042999864 0.7889000177 0.7231000066
 2943.0451660  -999.250000 12.500000000 0.0753060877 6.6694998741 0.3414269984 2.2087073326 15.651499748 58.741924286 1.5284999609 110.66760254 246.62600708 0.7003999949 0.7972999811 0.7207000256
 2943.1975098  -999.250000 12.500000000 0.0725035220 5.8755002022 0.3574210107 2.2036080360 15.453200340 59.171108246 1.9357000589 110.55490112 244.79570007 0.6966000199 0.7954000235 0.7174999714
 2943.3498535  -999.250000 12.500000000 0.0722980872 5.5528998375 0.3431000113 2.2005069256 15.152700424 59.798389435 2.1916000843 110.27250671 243.60049438 0.6930000186 0.7818999887 0.7136999965
 2943.5024414  -999.250000 12.500000000 0.0743958354 5.7670001984 0.3410049677 2.2005987167 15.073800087 60.012260437 2.1879000664 110.14019775 242.88819885 0.6894000173 0.7874000072 0.7092999816
 2943.6547852  -999.250000 12.500000000 0.0776945502 6.2669000626 0.3583890200 2.2031953335 15.254400253 59.499523163 1.9931999445 109.87550354 244.01879883 0.6858999729 0.7720000148 0.7042999864
 2943.8071289  -999.250000 12.500000000 0.0803961530 7.0123000145 0.3603549898 2.2062952518 15.446999550 58.005393982 1.5892000198 109.74501038 245.49229431 0.6823999882 0.7649000287 0.6988000274
 2943.9594727  -999.250000 12.500000000 0.0817968026 7.6216998100 0.3416109979 2.2092897892 15.483599663 56.336849213 1.1610000134 109.83840179 247.53540039 0.6790000200 0.7523000240 0.6930999756
 2944.1120605  -999.250000 12.500000000 0.0825987160 7.7411994934 0.3306190073 2.2138917446 15.379400253 55.786773682 0.9330999851 110.34020233 250.18460083 0.6758000255 0.7099999785 0.6875000000
 2944.2644043  -999.250000 12.500000000 0.0840974376 7.2807998657 0.3375929892 2.2204890251 15.246800423 57.172672272 0.8554999828 110.97100067 251.89270020 0.6728000045 0.6923999786 0.6823999882
 2944.4167480  -999.250000 12.500000000 0.0864961520 6.3158001900 0.3450820148 2.2258925438 15.322500229 59.402725220 0.9297999740 111.28790283 252.65330505 0.6703000069 0.6869999766 0.6779999733
 2944.5690918  -999.250000 12.500000000 0.0884974375 5.5520000458 0.3307600021 2.2265017033 15.719599724 60.857570648 1.0990999937 111.24980164 254.59410095 0.6680999994 0.6794000268 0.6747000217
 2944.7214355  -999.250000 12.500000000 0.0877051279 5.3289999962 0.3096820116 2.2209217548 16.091600418 61.166717529 1.2476999760 111.26519775 255.73229980 0.6665999889 0.7009000182 0.6723999977
