# LAS format log file from PETREL
# Project units are specified as depth units
#==================================================================
~Version information
VERS.   2.0:
WRAP.   NO:
#==================================================================
~Well
STRT .m      2901.1352539 :
STOP .m      2975.8112793 :
STEP .m     0.00000000 :
NULL .        -999.250000 :
COMP.           : COMPANY
WELL.  7/7-4 Orange   : WELL
FLD.            : FIELD
LOC.            : LOCATION
SRVC.           : SERVICE COMPANY
DATE.  2018-09-11 21:49:23   : Log Export Date {yyyy-MM-dd HH:mm:ss}
PROV.           : PROVINCE
UWI.   7/7-4   : UNIQUE WELL ID
API.            : API NUMBER
#==================================================================
~Curve
DEPT .m                   : DEPTH
CALI .in                  : CALI
BS .in                    : BS
DRHO .g/cm3               : DRHO
THOR .ppm                 : THOR
NPHI .m3/m3               : NPHI
RHOB .g/cm3               : RHOB
PEF .b/e                  : PEF
GR .gAPI                  : GR
URAN .ppm                 : URAN
DTC .us/ft                : DTC
DTS .us/ft                : DTS
RDEP .ohm.m               : RDEP
RMIC .ohm.m               : RMIC
RMED .ohm.m               : RMED
~Parameter
#==================================================================
~Ascii
# ...
 2919.8806152 12.977700233 12.500000000 0.0768000036 9.7445840836 0.3377950490 2.2137999535 14.916441917 68.102096558 1.1291431189 95.403099060 243.37532043 1.3319000006 1.2317941189 1.3223999739
 2920.0329590 13.019100189 12.500000000 0.0771000013 9.2973556519 0.3469081223 2.2098999023 14.984760284 71.994796753 1.6553980112 97.566108704 244.12983704 1.3197000027 1.3524092436 1.2927999496
 2920.1853027 13.020700455 12.500000000 0.0820999965 8.5837259293 0.3564441502 2.2190001011 15.389259338 77.787200928 2.2774081230 99.972099304 241.15625000 1.3080999851 1.1710633039 1.2688000202
 2920.3378906 13.001399994 12.500000000 0.0904000029 8.2878475189 0.3707389832 2.2369999886 15.823062897 80.899803162 2.4070775509 102.78730011 237.39405823 1.2977000475 1.0233862400 1.2506999969
 2920.4902344 12.980899811 12.500000000 0.1005999967 8.1774492264 0.3824025691 2.2623000145 15.967127800 80.180999756 2.4000880718 99.625297546 237.19435120 1.2885999680 0.9568038583 1.2382999659
 2920.6425781 12.964900017 12.500000000 0.1076000035 7.9586606026 0.3811914623 2.2813999653 15.820641518 76.570098877 2.3926620483 96.567100525 237.04747009 1.2812999487 0.9593530893 1.2314000130
 2920.7949219 12.961899757 12.500000000 0.1049000025 7.6846890450 0.3671832085 2.2757000923 15.709299088 72.540603638 2.4314775467 92.541397095 239.32023621 1.2759000063 1.0549173355 1.2295000553
 2920.9475098 12.984299660 12.500000000 0.0951000005 7.4276156425 0.3499408960 2.2513999939 15.821354866 70.133697510 2.5426855087 91.308898926 229.30679321 1.2724000216 1.1902194023 1.2317999601
 2921.0998535 13.024800301 12.500000000 0.0866999999 7.0890703201 0.3425341845 2.2321000099 16.012954712 67.846298218 2.7254517078 91.910697937 228.62554932 1.2706999779 1.1650943756 1.2371000051
 2921.2521973 13.055298805 12.500000000 0.0828000009 6.6342382431 0.3459381759 2.2270998955 16.055046082 64.317596436 2.9447920322 94.554397583 232.83871460 1.2707999945 1.1617009640 1.2440999746
 2921.4045410 13.056098938 12.500000000 0.0816000029 6.3467464447 0.3398350775 2.2300999165 15.947791100 61.563598633 3.0643424988 96.230796814 240.07778931 1.2724000216 1.2247755527 1.2516000271
 2921.5568848 13.016699791 12.500000000 0.0816000029 6.4392046928 0.3182123899 2.2353000641 15.929303169 62.881198883 3.0909893513 96.976997375 245.05911255 1.2753000259 1.3341680765 1.2584999800
 2921.7094727 12.948900223 12.500000000 0.0821999982 7.1925435066 0.3160528541 2.2379999161 16.078737259 69.554397583 3.2109150887 98.132194519 245.67710876 1.2791999578 1.3138310909 1.2641999722
 2921.8618164 12.900200844 12.500000000 0.0815000013 8.0787229538 0.3613807857 2.2325000763 16.160919189 80.482398987 3.8401091099 98.944396973 241.46557617 1.2836999893 1.1675492525 1.2689000368
 2922.0141602 12.906599998 12.500000000 0.0804999992 8.4045820236 0.4280731976 2.2242000103 15.987957001 91.999198914 4.7811679840 99.238800049 235.83743286 1.2883000374 1.0112630129 1.2734999657
 2922.1665039 12.948599815 12.500000000 0.0821999982 8.4553976059 0.4421918094 2.2251999378 15.736129761 99.387199402 5.1972856522 99.015899658 228.30741882 1.2927000523 0.9258604050 1.2792999744
 2922.3190918 12.982399940 12.500000000 0.0865999982 8.4525861740 0.4028216302 2.2365999222 15.699612617 99.832000732 5.1878662109 97.792098999 219.82157898 1.2963000536 0.9012105465 1.2872999907
 2922.4714355 12.992698669 12.500000000 0.0917999968 8.1354465485 0.3644254804 2.2511000633 15.835002899 93.051902771 4.9894428253 97.716201782 212.10974121 1.2984999418 0.9046342969 1.2977999449
 2922.6237793 12.984800339 12.500000000 0.0974000022 7.2286901474 0.3552603424 2.2636001110 15.830676079 81.939002991 4.3297882080 97.009201050 203.29713440 1.2989000082 0.9887147546 1.3098000288
 2922.7761230 12.958299637 12.500000000 0.1015999988 6.5366802216 0.3573834896 2.2686998844 15.597529411 72.001899719 3.7612311840 94.410896301 201.51907349 1.2970000505 1.2472753525 1.3209999800
 2922.9287109 12.920299530 12.500000000 0.1004000008 6.3369221687 0.3489407599 2.2586998940 15.416830063 64.577400208 3.4666891098 89.546897888 204.77848816 1.2926000357 1.3572618961 1.3279999495
 2923.0810547 12.887200356 12.500000000 0.0929000005 6.2194137573 0.3301220238 2.2358999252 15.426144600 55.987800598 2.6833431721 86.207992554 215.72006226 1.2854845524 1.5956946611 1.3268809319
 2923.2333984 12.870599747 12.500000000 0.0843999982 6.2906908989 0.3081679642 2.2153999805 15.422240257 47.983398438 1.9000523090 85.364097595 225.92242432 1.2757812738 2.2781951427 1.3149647713
 2923.3857422 12.871899605 12.500000000 0.0807999969 6.4730882645 0.2976352572 2.2100999355 15.314189911 47.858699799 1.7458208799 88.886901855 230.98362732 1.2640789747 2.5852825642 1.2929528952
 2923.5380859 12.886799812 12.500000000 0.0826999992 7.2147865295 0.3150915504 2.2186999321 15.290578842 56.192401886 1.8211501837 94.838897705 234.17776489 1.2509772778 1.7011400461 1.2635473013
 2923.6906738 12.901100159 12.500000000 0.0864000022 8.1427936554 0.3540962934 2.2302000523 15.434730530 65.780502319 1.8524416685 103.40070343 232.02735901 1.2367770672 1.0394493341 1.2306500673
 2923.8430176 12.894599915 12.500000000 0.0885000005 8.5122919083 0.3731305897 2.2355000973 15.639272690 71.200996399 1.8160294294 105.19869995 227.19985962 1.2224777937 0.8832194209 1.1994589567
 2923.9953613 12.860300064 12.500000000 0.0885999948 8.6314268112 0.3705096543 2.2327001095 15.780962944 71.332000732 1.7716093063 104.40260315 220.45112610 1.2086795568 0.8329795003 1.1738708019
 2924.1477051 12.819700241 12.500000000 0.0883999988 8.2717618942 0.3809787035 2.2258999348 15.781552315 65.693099976 1.4653764963 100.21939850 217.68116760 1.1959819794 0.8204092979 1.1556826830
 2924.3002930 12.813699722 12.500000000 0.0873000026 6.8096451759 0.3805973530 2.2163000107 15.684399605 55.918998718 1.1397870779 94.903503418 220.59841919 1.1847705841 0.9524415731 1.1448845863
 2924.4526367 12.854499817 12.500000000 0.0824000016 5.2341866493 0.3389868438 2.2002000809 15.654918671 46.795101166 1.2918193340 91.285102844 224.65832520 1.1755888462 1.4646619558 1.1400977373
 2924.6049805 12.913100243 12.500000000 0.0741999969 4.7283153534 0.2910121381 2.1809999943 15.762126923 44.130100250 1.4910234213 89.074203491 228.22479248 1.1685924530 2.0020189285 1.1386994123
 2924.7573242 12.945899963 12.500000000 0.0687000006 5.3638410568 0.2727397680 2.1728000641 15.995878220 50.594799042 1.6307667494 89.679794312 228.90388489 1.1638964415 2.1997241974 1.1382986307
 2924.9099121 12.947899818 12.500000000 0.0715000033 7.2018890381 0.2963624895 2.1861999035 16.287288666 62.939399719 1.9843415022 92.981101990 226.88215637 1.1617013216 1.5282118320 1.1374955177
 2925.0622559 12.942600250 12.500000000 0.0830999985 8.9750280380 0.3574375808 2.2190999985 16.450735092 74.382003784 2.1529083252 98.146400452 222.65093994 1.1621049643 1.0956507921 1.1360994577
 2925.2145996 12.928600311 12.500000000 0.0984999985 9.6152658463 0.4067145288 2.2569000721 16.446733475 80.219299316 2.0953433514 102.37979889 216.86889648 1.1652089357 1.0026865005 1.1357049942
 2925.3669434 12.907799721 12.500000000 0.1086999997 9.5934505463 0.4107862711 2.2790000439 16.403779984 78.957603455 1.8722343445 104.81400299 210.37954712 1.1708129644 0.9944179654 1.1388155222
 2925.5190430 12.908299446 12.500000000 0.1086083055 9.2512998581 0.4097230136 2.2752306461 16.294900894 73.611961365 1.2705999613 105.14743042 204.11070251 1.1789000034 1.0678999424 1.1484999657
 2925.6716309 12.928299904 12.500000000 0.1020115390 8.9280004501 0.4039520025 2.2581286430 16.054800034 69.012756348 0.8493999839 103.89231873 199.96099854 1.1892999411 1.0866999626 1.1676000357
 2925.8239746 12.929499626 12.500000000 0.0955096185 8.6641998291 0.3832469881 2.2437205315 15.896200180 65.555839539 0.7818999887 100.86984253 193.51390076 1.2015999556 0.9530000091 1.1981999874
 2925.9763184 12.915100098 12.500000000 0.0913057700 7.2326998711 0.3549219966 2.2343137264 16.002000809 60.016185760 0.8036999702 95.598953247 188.33560181 1.2150000334 0.9054999948 1.2403999567
