# LAS format log file from PETREL
# Project units are specified as depth units
#==================================================================
~Version information
VERS.   2.0:
WRAP.   NO:
#==================================================================
~Well
STRT .m      2901.1352539 :
STOP .m      2975.8112793 :
STEP .m     0.00000000 :
NULL .        -999.250000 :
COMP.           : COMPANY
WELL.  7/7-4 Orange   : WELL
FLD.            : FIELD
LOC.            : LOCATION
SRVC.           : SERVICE COMPANY
DATE.  2018-09-11 21:49:23   : Log Export Date {yyyy-MM-dd HH:mm:ss}
PROV.           : PROVINCE
UWI.   7/7-4   : UNIQUE WELL ID
API.            : API NUMBER
#==================================================================
~Curve
DEPT .m                   : DEPTH
CALI .in                  : CALI
BS .in                    : BS
DRHO .g/cm3               : DRHO
THOR .ppm                 : THOR
NPHI .m3/m3               : NPHI
RHOB .g/cm3               : RHOB
PEF .b/e                  : PEF
GR .gAPI                  : GR
URAN .ppm                 : URAN
DTC .us/ft                : DTC
DTS .us/ft                : DTS
RDEP .ohm.m               : RDEP
RMIC .ohm.m               : RMIC
RMED .ohm.m               : RMED
~Parameter
#==================================================================
~Ascii
# ...
 2951.1223145 12.662300110 12.500000000 0.0998862162 7.4786000252 0.2950180173 2.2480671406 15.808199883 50.164398193 0.3842000067 103.34169769 240.53630066 0.7882000208 0.8061000109 0.8181999922
 2951.2746582 12.674098969 12.500000000 0.1051878184 7.2502999306 0.3107439876 2.2601742744 15.763299942 52.645301819 0.4007000029 105.05599976 246.85130310 0.7850000262  -999.250000 0.8105000257
 2951.4272461 12.676800728 12.500000000 0.1035057679 7.2859001160 0.3278729916 2.2530198097 15.586199760 52.441898346 0.4293999970 107.21899414 253.17430115 0.7815999985 0.7839999795 0.8011999726
 2951.5795898 12.669300079 12.500000000 0.0958141014 7.3083000183 0.3236849904 2.2299408913 15.420299530 50.982700348 0.5073000193 108.81529999 257.03219604 0.7779999971 0.7742000222 0.7914000154
 2951.7319336 12.649299622 12.500000000 0.0867141038 7.1581997871 0.3092629910 2.2050378323 15.309399605 50.538700104 0.6460999846 109.74279785 258.17739868 0.7743999958 0.7372000217 0.7820000052
 2951.8842773 12.626999855 12.500000000 0.0806159750 6.7575998306 0.3030000031 2.1908345222 15.273699760 51.286800385 0.8651000261 110.18379974 256.36340332 0.7712000012 0.7179999948 0.7741000056
 2952.0368652 12.617500305 12.500000000 0.0791006386 6.2185001373 0.3144240081 2.1898970604 15.367099762 51.558799744 1.0896999836 110.43939972 253.90499878 0.7682999969 0.7423999906 0.7680000067
 2952.1892090 12.612599373 12.500000000 0.0806967989 5.6293997765 0.3484419882 2.1961879730 15.546099663 50.752101898 1.2769000530 110.57370758 249.16009521 0.7660999894 0.7648000121 0.7641999722
 2952.3415527 12.595700264 12.500000000 0.0837945566 5.0932998657 0.3845309913 2.2047855854 15.748499870 50.237201691 1.4465999603 110.05069733 243.09689331 0.7645000219 0.7308999896 0.7626000047
 2952.4938965 12.584000587 12.500000000 0.0873884931 4.6848001480 0.3937279880 2.2136731148 15.929100037 50.057098389 1.5693999529 109.12169647 238.99319458 0.7638000250 0.6955000162 0.7631000280
 2952.6464844 12.594699860 12.500000000 0.0887993574 4.2803997993 0.3883010149 2.2167992592 16.021499634 49.103900909 1.6531000137 107.79979706 236.43299866 0.7638000250 0.7756000161 0.7653999925
 2952.7988281 12.619999886 12.500000000 0.0853073671 3.9060001373 0.3793389797 2.2087168694 16.016099930 47.277999878 1.6991000175 107.32080078 236.26629639 0.7645999789 0.8841000199 0.7688999772
 2952.9511719 12.640000343 12.500000000 0.0802073702 3.7953000069 0.3696519732 2.1983139515 15.960300446 45.630401611 1.6791000366 106.48629761 237.39630127 0.7660999894 0.9312000275 0.7731999755
 2953.1035156 12.650799751 12.500000000 0.0792990401 3.9822998047 0.3573909998 2.1996920109 15.808300018 45.308300018 1.6025999784 105.87930298 239.55857849 0.7682999969 0.9171000123 0.7775999904
 2953.2558594 12.656700134 12.500000000 0.0829858929 4.4313998222 0.3249700069 2.2123544216 15.569100380 46.001399994 1.4939999580 105.53929901 241.98570251 0.7710999846 0.8982999921 0.7817000151
 2953.4084473 12.661600113 12.500000000 0.0870939121 4.9436001778 0.2903790176 2.2250816822 15.404299736 46.904598236 1.4140000343 105.92060089 242.25199890 0.7742999792 0.8730999827 0.7856000066
 2953.5607910 12.662400246 12.500000000 0.0886983946 5.3477001190 0.2823439837 2.2312929630 15.390000343 47.764499664 1.3934999704 106.07839966 238.46247864 0.7778000236 0.7911999822 0.7893000245
 2953.7131348 12.661299706 12.500000000 0.0877028853 5.5869002342 0.2987840176 2.2302052975 15.465200424 47.749698639 1.3920999765 106.13629913 233.74369812 0.7814000249 0.7556999922 0.7930999994
 2953.8654785 12.668299675 12.500000000 0.0834166184 5.4642000198 0.3250149786 2.2183480263 15.560600281 46.063800812 1.3986999989 105.76969910 227.98860168 0.7850999832 0.7962999940 0.7973999977
 2954.0180664 12.678699493 12.500000000 0.0767112225 5.1157999039 0.3366569877 2.1971354485 15.570400238 43.998901367 1.3820999861 105.26660156 225.84921265 0.7885000110 0.8440999985 0.8021000028
 2954.1704102 12.683099747 12.500000000 0.0725044832 4.8020000458 0.3197549880 2.1810197830 15.468700409 43.549499512 1.3293000460 104.79039764 226.14709473 0.7917000055 0.8905000091 0.8072000146
 2954.3227539 12.676099777 12.500000000 0.0755916685 4.5808000565 0.2836759984 2.1850843430 15.410699844 43.888599396 1.2588000298 104.13110352 226.34840393 0.7943999767 0.9361000061 0.8119999766
 2954.4750977 12.661299706 12.500000000 0.0845693275 4.5648999214 0.2664169967 2.2059259415 15.537599564 43.722599030 1.1916999817 103.64910126 227.24119568 0.7965000272 0.9448000193 0.8158000112
 2954.6276855 12.635199547 12.500000000 0.0930878147 5.0402002335 0.2764720023 2.2269694805 15.814999580 43.971298218 1.1245000362 103.20240021 226.74800110 0.7980999947 0.9534999728 0.8181999922
 2954.7800293 12.601799011 12.500000000 0.0966964737 5.9569997787 0.2811779976 2.2362904549 16.015399933 45.282600403 1.0777000189 103.05300140 226.98829651 0.7990999818 0.9538999796 0.8185999990
 2954.9323730 12.593700409 12.500000000 0.0958025604 6.7114000320 0.2654719949 2.2344064713 15.867300034 46.118499756 1.0477999449 103.52040100 225.72619629 0.7994999886 0.9440000057 0.8169999719
 2955.0847168 12.632399559 12.500000000 0.0930048078 7.1572999954 0.2640460134 2.2269134521 15.443599701 46.043498993 0.9998999238 103.93779755 224.79051208 0.7994999886 0.8755999804 0.8134999871
 2955.2370605 12.685299873 12.500000000 0.0896108970 7.3903999329 0.2826580107 2.2166345119 15.114399910 46.342800140 0.9490000010 104.81679535 225.60789490 0.7990000248 0.8514000177 0.8087999821
 2955.3896484 12.708099365 12.500000000 0.0865044817 7.3308000565 0.2893489897 2.2061159611 15.041199684 47.811698914 0.8956999779 105.16519928 229.14970398 0.7983000278 0.8496999741 0.8033000231
 2955.5419922 12.701999664 12.500000000 0.0856999978 7.0455999374 0.2963839769 2.2024016380 15.156700134 49.109100342 0.8409000039 105.30560303 235.65800476 0.7975999713 0.8468999863 0.7975999713
 2955.6943359 12.674401283 12.500000000 0.0886939093 6.8884000778 0.3182469904 2.2099835873 15.363699913 48.714298248 0.7882000208 105.06459808 240.35609436 0.7968999743 0.8525999784 0.7925000191
 2955.8466797 12.633799553 12.500000000 0.0938833877 6.7690000534 0.3300170004 2.2240533829 15.564399719 47.455299377 0.7843000293 105.10409546 242.75079346 0.7965000272 0.8822000027 0.7881000042
 2955.9992676 12.603799820 12.500000000 0.0977951959 6.5623002052 0.3156679869 2.2352852821 15.693699837 46.781398773 0.8100000024 105.28890228 243.44088745 0.7965000272 0.8634999990 0.7850000262
 2956.1516113 12.593099594 12.500000000 0.0970035270 6.5510001183 0.2955209911 2.2349066734 15.658200264 46.992500305 0.7994999886 105.80039978 242.51960754 0.7968999743 0.7527999878 0.7833999991
 2956.3039551 12.593700409 12.500000000 0.0907115415 6.5226998329 0.2792330086 2.2203278542 15.494099617 47.823299408 0.8014000058 106.42749786 241.39729309 0.7979999781 0.7511000037 0.7833999991
 2956.4562988 12.613300323 12.500000000 0.0838198140 6.4453001022 0.2740550041 2.2033491135 15.478799820 48.719799042 0.8162000179 107.17369080 239.84199524 0.7996000051 0.7696999907 0.7850999832
 2956.6088867 12.658100128 12.500000000 0.0819006413 6.5419001579 0.2807889879 2.1986012459 15.632200241 48.237201691 0.7845000029 107.61299896 238.48068237 0.8019000292 0.7878999710 0.7882999778
 2956.7612305 12.698800087 12.500000000 0.0849939138 6.6642999649 0.2848889828 2.2065839767 15.599699974 47.208499908 0.7526000142 107.53050995 235.26939392 0.8047000170 0.7901999950 0.7928000093
 2956.9135742 12.715200424 12.500000000 0.0888942331 6.4586000443 0.2742869854 2.2166850567 15.401900291 47.360599518 0.8065000176 107.14040375 232.72920227 0.8080999851 0.7799999714 0.7983999848
 2957.0659180 12.716899872 12.500000000 0.0905980766 5.9935002327 0.2594960034 2.2209961414 15.386400223 48.202098846 0.9067999721 106.35690308 231.49690247 0.8119999766 0.7813000083 0.8047999740
 2957.2182617 12.712499619 12.500000000 0.0896051228 5.6575999260 0.2586500049 2.2177166939 15.520099640 47.143199921 0.9393000007 105.75740051 230.43910217 0.8162999749 0.7915999889 0.8116000295
