# LAS format log file from PETREL
# Project units are specified as depth units
#==================================================================
~Version information
VERS.   2.0:
WRAP.   NO:
#==================================================================
~Well
STRT .m      2901.1352539 :
STOP .m      2975.8112793 :
STEP .m     0.00000000 :
NULL .        -999.250000 :
COMP.           : COMPANY
WELL.  7/7-4 Orange   : WELL
FLD.            : FIELD
LOC.            : LOCATION
SRVC.           : SERVICE COMPANY
DATE.  2018-09-11 21:49:23   : Log Export Date {yyyy-MM-dd HH:mm:ss}
PROV.           : PROVINCE
UWI.   7/7-4   : UNIQUE WELL ID
API.            : API NUMBER
#==================================================================
~Curve
DEPT .m                   : DEPTH
CALI .in                  : CALI
BS .in                    : BS
DRHO .g/cm3               : DRHO
THOR .ppm                 : THOR
NPHI .m3/m3               : NPHI
RHOB .g/cm3               : RHOB
PEF .b/e                  : PEF
GR .gAPI                  : GR
URAN .ppm                 : URAN
DTC .us/ft                : DTC
DTS .us/ft                : DTS
RDEP .ohm.m               : RDEP
RMIC .ohm.m               : RMIC
RMED .ohm.m               : RMED
~Parameter
#==================================================================
~Ascii
# ...
 2926.1286621 12.886300087 12.500000000 0.0895016044 5.0369000435 0.3037799895 2.2279090881 16.180400848 51.827430725 0.8823999763 87.985008240 185.12989807 1.2288999557 1.1396000385 1.2920999527
 2926.2810059 12.814900398 12.500000000 0.0905935913 3.7565000057 0.2363709956 2.2272956371 16.189300537 42.830142975 0.8064000010 82.452621460 181.91220093 1.2424000502 1.9988000393 1.3485000134
 2926.4335938 12.725799561 12.500000000 0.0957897380 3.6315000057 0.1846919954 2.2380766869 16.052900314 35.063621521 0.6453999877 81.390975952 191.45532227 1.2545000315 3.5353000164 1.4000999928
 2926.5859375 12.689700127 12.500000000 0.1068794876 3.8835000992 0.1607699990 2.2682425976 15.942000389 31.276159286 0.5766999722 89.701057434 199.47709656 1.2642999887 4.8333997726 1.4378000498
 2926.7382813 12.732000351 12.500000000 0.1234724298 4.4278001785 0.1641229987 2.3150217533 15.917200089 34.530967712 0.5328000188 96.928115845 212.32049561 1.2714999914 5.7006998062 1.4556000233
 2926.8906250 12.827500343 12.500000000 0.1367648691 6.3414998055 0.1931900084 2.3523023129 15.932399750 44.822975159 0.4898000062 100.16723633 220.42030334 1.2755999565 3.6275000572 1.4490000010
 2927.0432129 12.917499542 12.500000000 0.1372048110 7.8158998489 0.2430289984 2.3546118736 15.953499794 57.437305450 0.8108000159 97.210258484 228.86889648 1.2761000395 1.8547999859 1.4198000431
 2927.1955566 12.948100090 12.500000000 0.1266195476 7.7184004784 0.3031719923 2.3285484314 15.957500458 66.147155762 1.3186000586 98.267501831 231.73739624 1.2735999823 1.2762999535 1.3777999878
 2927.3479004 12.933300018 12.500000000 0.1139195487 7.4962000847 0.3503549993 2.2984454632 15.922100067 69.472282410 1.5791000128 100.91943359 231.39718628 1.2684999704 1.1090999842 1.3329000473
 2927.5002441 12.923000336 12.500000000 0.1050242782 7.2090997696 0.3622320294 2.2798485756 15.856399536 69.365859985 1.8543000221 103.46981812 227.88099670 1.2615000010 0.9388999939 1.2925000191
 2927.6528320 12.928899765 12.500000000 0.0999070480 6.7814002037 0.3509100080 2.2706131935 15.772800446 68.031646729 2.2295000553 102.72490692 224.73979187 1.2532999516 0.8776999712 1.2606999874
 2927.8051758 12.945599556 12.500000000 0.0955070481 6.4660000801 0.3350719810 2.2603182793 15.642900467 66.777107239 2.4772000313 100.63425446 221.90339661 1.2444000244 0.9481999874 1.2388000488
 2927.9575195 12.971799850 12.500000000 0.0915054455 6.2814998627 0.3203819990 2.2484183311 15.455400467 65.725784302 2.5646998882 97.943511963 223.00329590 1.2355999947 1.0845999718 1.2256000042
 2928.1098633 13.004899979 12.500000000 0.0905996785 6.1304998398 0.3087400198 2.2435038090 15.312000275 64.344215393 2.5634999275 96.353446960 226.58180237 1.2273000479 1.2280000448 1.2184000015
 2928.2622070 13.033199310 12.500000000 0.0927916691 6.0559000969 0.3041720092 2.2459890842 15.354499817 62.941692352 2.4993999004 96.206069946 233.92309570 1.2197999954 1.3837000132 1.2137999535
 2928.4147949 13.030200005 12.500000000 0.0941987187 6.0503001213 0.3101980090 2.2468008995 15.561100006 62.159149170 2.4277000427 97.271293640 238.64598083 1.2136000395 1.4404000044 1.2087999582
 2928.5671387 12.975500107 12.500000000 0.0928032026 6.1803002357 0.3179050088 2.2418096066 15.698599815 62.275711060 2.3487000465 98.750526428 244.69868469 1.2088999748 1.5101000071 1.2015000582
 2928.7194824 12.897299767 12.500000000 0.0902041644 6.5879001617 0.3186889887 2.2360084057 15.577500343 63.132225037 2.2126998901 100.67741394 238.05831909 1.2059999704 1.3463000059 1.1915999651
 2928.8718262 12.845800400 12.500000000 0.0883044675 7.0904002190 0.3277920187 2.2345993519 15.315400124 63.494739532 2.0662999153 102.76072693 235.35090637 1.2050000429 1.1165000200 1.1806999445
 2929.0244141 12.829899788 12.500000000 0.0888977572 7.4903001785 0.3554589748 2.2398886681 15.165699959 63.525253296 1.9702999592 104.46048737 222.86010742 1.2059999704 1.0700999498 1.1713000536
 2929.1767578 12.835300446 12.500000000 0.0925932750 7.8643999100 0.3769089878 2.2512805462 15.215000153 65.137313843 1.8698999882 105.69462585 216.62390137 1.2089999914 0.9890999794 1.1663000584
 2929.3291016 12.874500275 12.500000000 0.0966942310 8.1092996597 0.3934130073 2.2604885101 15.322999954 67.740829468 1.8039000034 105.42094421 211.74659729 1.2138999701 0.8834000230 1.1685999632
 2929.4814453 12.941900253 12.500000000 0.0977993608 8.1342000961 0.4177650213 2.2598102093 15.374099731 67.480743408 1.7843999863 103.30967712 206.62849426 1.2201999426 0.8906999826 1.1799000502
 2929.6340332 12.998600006 12.500000000 0.0963032022 7.7017002106 0.4250880182 2.2533111572 15.444800377 61.667430878 1.5570000410 99.858535767 203.79829407 1.2273999453 0.9276999831 1.2008999586
 2929.7863770 13.029398918 12.500000000 0.0931060836 6.5486998558 0.3845489919 2.2458128929 15.614199638 51.436206818 1.0863000154 95.413429260 199.96940613 1.2347999811 1.1229000092 1.2304999828
 2929.9387207 13.048300743 12.500000000 0.0858137831 5.5945000648 0.3381179869 2.2317271233 15.713500023 42.010803223 0.7077999711 91.136650085 200.37489319 1.2411999702 1.4681999683 1.2661000490
 2930.0910645 13.064000130 12.500000000 0.0728227571 5.3998999596 0.3214799762 2.2045485973 15.580599785 38.210975647 0.6600999832 88.316719055 200.41299438 1.2457000017 1.8359999657 1.3028999567
 2930.2434082 13.088198662 12.500000000 0.0579461530 5.3235998154 0.3290860057 2.1708066463 15.344099998 38.792114258 0.8510000110 85.979194641 204.96519470 1.2474000454 1.9321000576 1.3351999521
 2930.3959961 13.134699821 12.500000000 0.0479131415 5.1584000587 0.3268650174 2.1473300457 15.251199722 39.944152832 1.0731999874 85.744369507 210.81849670 1.2453000546 1.8457000256 1.3566000462
 2930.5483398 13.189800262 12.500000000 0.0457006395 5.0496997833 0.3129400015 2.1429996490 15.407799721 40.532157898 1.2897000313 86.118690491 220.74620056 1.2387000322 1.8394000530 1.3616000414
 2930.7006836 13.218800545 12.500000000 0.0488935895 4.9581999779 0.3128599823 2.1521821022 15.734600067 41.881935120 1.5078999996 87.814872742 233.12739563 1.2272000313 1.9321000576 1.3478000164
 2930.8530273 13.168299675 12.500000000 0.0542820506 5.2067999840 0.3249379992 2.1656556129 15.993700027 45.460617065 1.7028000355 89.563789368 240.43499756 1.2109999657 1.8608000278 1.3165999651
 2931.0056152 13.022000313 12.500000000 0.0610884614 6.4310998917 0.3344100118 2.1803750992 15.963700294 51.421947479 1.6276999712 92.018669128 244.50729370 1.1904000044 1.5729000568 1.2726000547
 2931.1579590 12.852699280 12.500000000 0.0705836564 7.5984001160 0.3443479836 2.1989681721 15.706800461 57.223602295 1.4055999517 94.861740112 246.57910156 1.1662000418 1.2427999973 1.2214000225
 2931.3103027 12.762999535 12.500000000 0.0813830122 7.8864994049 0.3642860055 2.2196676731 15.490799904 60.202632904 1.3588999510 98.642539978 247.50010681 1.1392999887 1.0441999435 1.1685999632
 2931.4626465 12.771300316 12.500000000 0.0893782750 7.9725995064 0.3841510117 2.2341611385 15.461700439 61.227226257 1.3832000494 101.35331726 248.49560547 1.1105999947 1.0872999430 1.1184999943
 2931.6152344 12.821999550 12.500000000 0.0930951908 8.0600996017 0.3855110109 2.2429859638 15.592700005 62.735584259 1.4381999969 104.10090637 247.83830261 1.0808999538 1.0590000153 1.0737999678
 2931.7675781 12.866700172 12.500000000 0.0962942317 8.1286001205 0.3674190044 2.2566747665 15.771499634 65.013046265 1.4962999821 105.27252197 247.67610168 1.0513000488 0.9494000077 1.0357999802
 2931.9199219 12.890800476 12.500000000 0.0996948704 8.2390003204 0.3490129709 2.2729759216 15.836999893 65.554237366 1.4581999779 104.92496490 247.71270752 1.0221999884 0.8361999989 1.0046000481
 2932.0722656 12.892999649 12.500000000 0.0997015983 8.3491001129 0.3401150107 2.2765016556 15.772800446 63.300918579 1.2503999472 104.56927490 251.82780457 0.9943000078 0.8223999739 0.9793000221
 2932.2246094 12.876000404 12.500000000 0.0962128192 8.2821998596 0.3391140103 2.2650456429 15.770600319 59.711910248 0.9689000249 104.23915863 254.79249573 0.9678999782 0.8711000085 0.9587000012
