# LAS format log file from PETREL
# Project units are specified as depth units
#==================================================================
~Version information
VERS.   2.0:
WRAP.   NO:
#==================================================================
~Well
STRT .m      2901.1352539 :
STOP .m      2975.8112793 :
STEP .m     0.00000000 :
NULL .        -999.250000 :
COMP.           : COMPANY
WELL.  7/7-4 Orange   : WELL
FLD.            : FIELD
LOC.            : LOCATION
SRVC.           : SERVICE COMPANY
DATE.  2018-09-11 21:49:23   : Log Export Date {yyyy-MM-dd HH:mm:ss}
PROV.           : PROVINCE
UWI.   7/7-4   : UNIQUE WELL ID
API.            : API NUMBER
#==================================================================
~Curve
DEPT .m                   : DEPTH
CALI .in                  : CALI
BS .in                    : BS
DRHO .g/cm3               : DRHO
THOR .ppm                 : THOR
NPHI .m3/m3               : NPHI
RHOB .g/cm3               : RHOB
PEF .b/e                  : PEF
GR .gAPI                  : GR
URAN .ppm                 : URAN
DTC .us/ft                : DTC
DTS .us/ft                : DTS
RDEP .ohm.m               : RDEP
RMIC .ohm.m               : RMIC
RMED .ohm.m               : RMED
~Parameter
#==================================================================
~Ascii
# ...
 2963.6191406 13.001000404 12.500000000 0.0545092933 4.4151000977 0.3655410111 2.1475155354 15.128000259 46.529201508 1.0896999836 112.65129852 272.86270142 0.8349999785 0.6545000076 0.8525999784
 2963.7714844 12.951800346 12.500000000 0.0547929481 4.2168002129 0.3654479980 2.1507763863 15.247300148 45.055099487 1.1165000200 111.94380951 274.44989014 0.8106999993 0.6887000203 0.8216999769
 2963.9240723 12.894200325 12.500000000 0.0608891025 4.0430998802 0.3871070147 2.1647760868 15.593799591 43.585998535 1.1869000196 111.14440155 279.89529419 0.7864000201 0.6701999903 0.7915999889
 2964.0764160 12.870599747 12.500000000 0.0672907084 3.7493000031 0.4260350168 2.1772823334 15.952799797 42.036201477 1.2973999977 111.02249908 287.43789673 0.7626000047 0.7565000057 0.7627000213
 2964.2287598 12.899900436 12.500000000 0.0704964772 3.5139000416 0.4390529990 2.1829936504 16.115299225 41.785198212 1.3967000246 111.62220001 294.03369141 0.7398999929 0.8712000251 0.7350999713
 2964.3811035 12.961700439 12.500000000 0.0712980852 3.6935999393 0.4247280061 2.1849942207 16.041799545 44.402698517 1.4643000364 112.15480042 296.12149048 0.7184000015 0.7994999886 0.7095999718
 2964.5336914 13.022500038 12.500000000 0.0726967975 4.7971000671 0.4089829922 2.1887924671 15.878999710 49.398200989 1.4296000004 113.17389679 295.63751221 0.6984999776 0.5756000280 0.6868000031
 2964.6860352 13.048500061 12.500000000 0.0768919885 6.4440999031 0.4032120109 2.1977832317 15.824500084 54.653800964 1.3091000319 114.66069794 291.59741211 0.6804000139 0.4833999872 0.6672999859
 2964.8383789 13.036800385 12.500000000 0.0833894238 7.4128999710 0.4032120109 2.2099802494 15.870100021 58.259101868 1.2312999964 116.55760193 287.42169189 0.6639999747 0.5188000202 0.6517000198
 2964.9907227 13.020799637 12.500000000 0.0885865763 7.7576994896 0.3997409940 2.2186782360 15.824700356 59.414100647 1.1641000509 118.46450043 282.36291504 0.6495000124 0.6082999706 0.6401000023
 2965.1433105 13.019398689 12.500000000 0.0892012790 8.0791997910 0.3906969726 2.2182047367 15.629699707 59.123401642 1.0819000006 119.30280304 279.30410767 0.6366999745 0.5268999934 0.6323999763
 2965.2956543 13.014499664 12.500000000 0.0841105804 8.3409996033 0.3953180015 2.2085187435 15.424900055 59.069900513 1.0106999874 118.95320129 275.17660522 0.6255000234 0.5004000068 0.6277999878
 2965.4479980 12.999600410 12.500000000 0.0729205087 8.4766998291 0.4133810103 2.1902327538 15.368399620 59.988998413 0.9143000245 118.04010010 274.66250610 0.6158000231 0.6308000088 0.6251999736
 2965.6003418 12.994700432 12.500000000 0.0566272438 8.5474004745 0.4181289971 2.1661391258 15.449199677 60.814098358 0.8197000027 116.28780365 274.50839233 0.6072999835 0.8648999929 0.6236000061
 2965.7526855 13.005299568 12.500000000 0.0423397459 8.4489002228 0.4048979878 2.1487443447 15.603300095 59.410900116 0.7572000027 114.86460114 275.87161255 0.5999000072 0.9182999730 0.6219000220
 2965.9052734 13.006299973 12.500000000 0.0385006405 7.8883004189 0.3783039749 2.1501889229 15.883199692 55.742500305 0.6949999928 113.86070251 278.01440430 0.5931000113 0.9009000063 0.6194000244
 2966.0576172 12.977199554 12.500000000 0.0467826910 7.3579001427 0.3493439853 2.1689648628 16.239799500 52.473201752 0.6611999869 113.92610168 279.23818970 0.5868999958 0.7785999775 0.6154999733
 2966.2099609 12.933600426 12.500000000 0.0608769208 7.2444000244 0.3361519873 2.1910665035 16.431499481 52.005199432 0.6664000154 115.06729889 281.57528687 0.5809999704 0.7001000047 0.6103000045
 2966.3623047 12.900300026 12.500000000 0.0720686913 7.2983999252 0.3460820019 2.2022757530 16.354799271 54.121498108 0.6956999898 116.48709869 286.01818848 0.5751000047 0.6783000231 0.6039000154
 2966.5148926 12.888799667 12.500000000 0.0773935914 7.7562999725 0.3697520196 2.2013051510 16.186300278 57.666599274 0.7253999710 118.12930298 290.65890503 0.5691999793 0.7077999711 0.5964000225
 2966.6672363 12.911399841 12.500000000 0.0790980756 8.3170003891 0.3963940144 2.1968071461 16.125099182 60.479099274 0.7361999750 118.06699371 294.89309692 0.5630000234 0.8040000200 0.5879999995
 2966.8195801 12.982399940 12.500000000 0.0787019208 8.6033000946 0.4172240198 2.1910109520 16.166799545 60.153900146 0.7214999795 118.30069733 299.52035522 0.5566999912 0.7770000100 0.5787000060
 2966.9719238 13.084698677 12.500000000 0.0750140622 8.8006000519 0.4275659919 2.1800389290 16.198600769 57.343700409 0.6728000045 118.14579773 302.94430542 0.5501000285 0.6574000120 0.5684999824
 2967.1245117 13.168099403 12.500000000 0.0715041682 8.9324998856 0.4221770167 2.1714096069 16.226499557 55.331401825 0.6496000290 118.05068970 305.36801147 0.5433999896 0.5770999789 0.5576999784
 2967.2768555 13.192500114 12.500000000 0.0726958364 9.0923004150 0.4149919748 2.1771845818 16.342500687 55.320598602 0.6347000003 118.03369904 304.13040161 0.5367000103 0.5353999734 0.5464000106
 2967.4291992 13.165699959 12.500000000 0.0758951977 9.2649002075 0.4163630009 2.1903793812 16.465200424 55.664501190 0.6068999767 117.75090027 300.47442627 0.5299999714 0.5404000282 0.5351999998
 2967.5815430 13.114500046 12.500000000 0.0758019239 9.3218002319 0.4216780066 2.1956958771 16.362699509 55.571098328 0.5950000286 117.14430237 296.57110596 0.5236999989 0.5580000281 0.5243999958
 2967.7338867 13.063899994 12.500000000 0.0729102567 9.3247003555 0.4329959750 2.1928129196 16.063400269 55.343498230 0.5672000051 116.90969849 297.55358887 0.5177999735 0.5417000055 0.5145000219
 2967.8864746 13.028800011 12.500000000 0.0700048059 9.3449001312 0.4430149794 2.1876091957 15.836299896 54.972000122 0.5108000040 116.71880341 304.42428589 0.5124999881 0.5396000147 0.5059999824
 2968.0388184 13.021499634 12.500000000 0.0669051260 9.3563003540 0.4206280112 2.1791150570 15.733900070 54.346500397 0.4528999925 117.72280121 312.82699585 0.5078999996 0.5819000006 0.4993000031
 2968.1911621 13.038800240 12.500000000 0.0643032044 9.2846002579 0.3788869977 2.1720085144 15.596500397 54.439201355 0.4126999974 119.78990173 318.76651001 0.5041000247 0.5638999939 0.4947000146
 2968.3435059 13.055899620 12.500000000 0.0646961629 9.1603002548 0.3690879941 2.1750810146 15.447299957 55.851699829 0.3598999977 121.35240173 322.24600220 0.5012000203 0.5187000036 0.4921999872
 2968.4960938 13.054900169 12.500000000 0.0666971132 8.9633998871 0.4001050293 2.1846845150 15.378800392 57.709098816 0.3163000047 121.84519958 321.78860474 0.4991999865 0.4981999993 0.4918000102
 2968.6484375 13.044199944 12.500000000 0.0668006390 8.6729001999 0.4299210012 2.1885974407 15.363499641 58.480098724 0.3300999999 120.91960144 317.05780029 0.4981000125 0.4866999984 0.4932999909
 2968.8007813 13.034099579 12.500000000 0.0653025657 8.3056001663 0.4179169834 2.1861052513 15.440899849 57.417999268 0.3840999901 118.98580170 310.60848999 0.4977999926 0.4945000112 0.4963999987
 2968.9531250 13.029398918 12.500000000 0.0639044717 7.5977997780 0.3901649714 2.1837065220 15.665599823 55.349899292 0.5282999873 117.85549927 303.93548584 0.4982999861 0.5008000135 0.5005000234
 2969.1057129 13.043299675 12.500000000 0.0625019222 6.8713998795 0.3849549890 2.1843969822 15.846699715 54.266998291 0.7376999855 117.67610168 299.08828735 0.4995000064 0.5368999839 0.5052000284
 2969.2580566 13.079700470 12.500000000 0.0640955120 6.5595002174 0.3888860047 2.1934804916 15.824099541 54.840499878 0.9398999810 118.11579895 294.42370605 0.5012000203 0.6572999954 0.5098999739
 2969.4104004 13.123800278 12.500000000 0.0718852580 6.5177001953 0.3761629760 2.2138645649 15.758600235 55.634899139 1.0909999609 118.78379822 292.57238770 0.5033000112 0.6337000132 0.5142999887
 2969.5627441 13.162099838 12.500000000 0.0817849338 6.5546998978 0.3603099883 2.2314774990 15.827699661 55.925800323 1.1772999763 119.34559631 289.23440552 0.5058000088 0.5846999884 0.5184999704
 2969.7150879 13.174699783 12.500000000 0.0850967988 6.5468001366 0.3526020050 2.2275326252 15.960399628 56.525398254 1.2493000031 120.71320343 288.64028931 0.5084000230 0.5497999787 0.5223000050
