# LAS format log file from PETREL
# Project units are specified as depth units
#==================================================================
~Version information
VERS.   2.0:
WRAP.   NO:
#==================================================================
~Well
STRT .m      2901.1352539 :
STOP .m      2975.8112793 :
STEP .m     0.00000000 :
NULL .        -999.250000 :
COMP.           : COMPANY
WELL.  7/7-4 Orange   : WELL
FLD.            : FIELD
LOC.            : LOCATION
SRVC.           : SERVICE COMPANY
DATE.  2018-09-11 21:49:23   : Log Export Date {yyyy-MM-dd HH:mm:ss}
PROV.           : PROVINCE
UWI.   7/7-4   : UNIQUE WELL ID
API.            : API NUMBER
#==================================================================
~Curve
DEPT .m                   : DEPTH
CALI .in                  : CALI
BS .in                    : BS
DRHO .g/cm3               : DRHO
THOR .ppm                 : THOR
NPHI .m3/m3               : NPHI
RHOB .g/cm3               : RHOB
PEF .b/e                  : PEF
GR .gAPI                  : GR
URAN .ppm                 : URAN
DTC .us/ft                : DTC
DTS .us/ft                : DTS
RDEP .ohm.m               : RDEP
RMIC .ohm.m               : RMIC
RMED .ohm.m               : RMED
~Parameter
#==================================================================
~Ascii
# ...
 2932.3771973 12.851300240 12.500000000 0.0923057646 8.0489997864 0.3432520032 2.2490253448 15.923000336 57.703205109 0.8531000018 103.90563202 256.56851196 0.9430999756 1.1086000204 0.9413999915
 2932.5295410 12.842999458 12.500000000 0.0898032039 7.6104998589 0.3494810164 2.2364177704 16.058099747 58.897678375 1.0562000275 104.03099823 256.64111328 0.9199000001 1.0829000473 0.9255999923
 2932.6818848 12.879599571 12.500000000 0.0892999917 7.0212998390 0.3670420051 2.2297081947 16.050300598 61.317619324 1.4290000200 103.74726105 255.14860535 0.8984000087 0.9176999927 0.9100999832
 2932.8342285 12.959000587 12.500000000 0.0898974389 6.7565999031 0.3943650126 2.2278037071 15.937600136 61.987361908 1.6484999657 104.49788666 254.72439575 0.8786000013 0.8582999706 0.8938000202
 2932.9868164 13.026499748 12.500000000 0.0897009596 6.7926998138 0.4019440114 2.2261035442 15.821100235 61.313285828 1.7322000265 104.95017242 253.24000549 0.8604000211 1.0623999834 0.8763999939
 2933.1391602 13.031399727 12.500000000 0.0890006423 6.9323000908 0.3894409835 2.2251996994 15.815299988 61.170925140 1.7625999451 105.75650787 253.82470703 0.8436999917 1.0764000416 0.8579000235
 2933.2915039 12.982501030 12.500000000 0.0908955112 7.1570000648 0.3848339915 2.2315862179 15.894700050 61.919898987 1.7294000387 106.29813385 258.59811401 0.8284999728 0.9477999806 0.8389999866
 2933.4438477 12.916299820 12.500000000 0.0942904204 7.4519000053 0.3913249969 2.2410738468 15.900899887 63.016883850 1.6138000488 107.31882477 268.32369995 0.8147000074 0.8203999996 0.8205000162
 2933.5964355 12.864800453 12.500000000 0.0920073688 7.6907000542 0.4064239860 2.2353188992 15.827500343 63.100872040 1.5010000467 109.08477020 276.24758911 0.8022000194 0.7950999737 0.8036999702
 2933.7487793 12.838500023 12.500000000 0.0802221149 7.7361001968 0.4345370233 2.2059545517 15.821599960 62.312767029 1.5077999830 110.99672699 279.88931274 0.7910000086 0.7893000245 0.7893999815
 2933.9011230 12.842000008 12.500000000 0.0660214722 7.7698006630 0.4548699856 2.1724493504 15.959899902 62.666732788 1.5471999645 112.56578827 278.71618652 0.7810000181 0.7599999905 0.7785000205
 2934.0534668 12.858200073 12.500000000 0.0598051287 8.0083999634 0.4508529902 2.1607067585 16.205799103 64.978088379 1.5513000488 113.16034698 274.73379517 0.7718999982 0.7318999767 0.7710000277
 2934.2058105 12.860300064 12.500000000 0.0644782037 8.4472999573 0.4327610135 2.1748392582 16.496299744 67.316009521 1.5318000317 112.62193298 266.86209106 0.7637000084 0.6814000010 0.7669000030
 2934.3583984 12.839199066 12.500000000 0.0728871748 8.7697000504 0.4115879834 2.1955690384 16.733600616 68.936317444 1.4817999601 111.18340302 257.51361084 0.7560999990 0.6740000248 0.7652999759
 2934.5107422 12.796500206 12.500000000 0.0769958347 8.9579000473 0.3936830163 2.2051899433 16.755100250 69.554313660 1.4354000092 109.19649506 246.70230103 0.7491000295 0.7430999875 0.7648000121
 2934.6630859 12.717100143 12.500000000 0.0761025622 8.9549999237 0.3735839725 2.2056009769 16.478900909 67.972038269 1.3280999660 107.19890594 244.15530396 0.7423999906 0.8812999725 0.7638999820
 2934.8154297 12.591699600 12.500000000 0.0750019252 8.4359998703 0.3500260115 2.2068922520 16.040300369 64.266487122 1.1124999523 105.92677307 244.03601074 0.7358999848 0.8454999924 0.7610999942
 2934.9680176 12.453900337 12.500000000 0.0773942322 7.9313993454 0.3373730183 2.2145845890 15.675499916 61.317714691 0.9663000107 105.64295959 248.88549805 0.7296000123 0.8679999709 0.7554000020
 2935.1203613 12.330699921 12.500000000 0.0838881359 8.0324001312 0.3395180106 2.2291741371 15.557700157 61.987415314 0.9046999812 106.93422699 253.76370239 0.7235000134 0.8713999987 0.7466999888
 2935.2727051 12.168198586 12.500000000 0.0916878209 8.5850000381 0.3574720025 2.2460732460 15.732899666 65.360984802 0.8547000289 108.41242981 259.99899292 0.7177000046 0.6784999967 0.7355999947
 2935.4250488 11.885999680 12.500000000 0.0965878665 8.9818000793 0.3878490031 2.2577700615 16.024000168 67.116081238 0.8543000221 109.86275482 264.79568481 0.7121000290 0.6607999802 0.7235000134
 2935.5776367 11.472800255 12.500000000 0.0969016030 8.8415002823 0.4122219980 2.2589030266 16.146799088 65.453575134 0.9387000203 111.30219269 268.58450317 0.7069000006 0.7289999723 0.7117999792
 2935.7299805 10.963199615 12.500000000 0.0932073668 8.5684003830 0.4144789875 2.2486207485 16.000999451 62.649997711 1.0377999544 112.20446014 269.11239624 0.7021999955 0.7761999965 0.7016999722
 2935.8823242 10.379699707 12.500000000 0.0871102586 8.2508001328 0.4131819904 2.2310295105 15.815400124 61.182449341 1.1016000509 112.82740021 267.94241333 0.6980999708 0.7897999883 0.6941999793
 2936.0346680 9.7534999847 12.500000000 0.0821070448 7.7923007011 0.4198379815 2.2152225971 15.832200050 61.226028442 1.1674000025 113.03786469 265.43249512 0.6945999861 0.7469999790 0.6894999743
 2936.1872559 9.1259002686 12.500000000 0.0801019222 7.3734002113 0.4140239954 2.2070102692 15.906499863 61.285102844 1.2120000124 112.56866455 262.31698608 0.6917999983 0.7293999791 0.6877999902
 2936.3395996 8.5129995346 12.500000000 0.0795009583 6.9977002144 0.3918679953 2.2020075321 15.795900345 59.665500641 1.2244000435 112.51269531 258.42190552 0.6897000074 0.7774000168 0.6884999871
 2936.4919434 7.9113006592 12.500000000 0.0792996809 6.7252001762 0.3661410213 2.1996009350 15.592200279 57.619979858 1.2374999523 112.17943573 253.29930115 0.6883000135 0.7979999781 0.6912999749
 2936.6442871 7.3081998825 12.500000000 0.0829916671 6.7582001686 0.3532450199 2.2111737728 15.461899757 57.943874359 1.2462999821 112.04651642 249.88101196 0.6873999834 0.7993999720 0.6952999830
 2936.7966309 6.6958999634 12.500000000 0.0917692259 7.1093997955 0.3529690206 2.2391026020 15.407600403 60.056716919 1.2601000071 111.88642120 248.15809631 0.6870999932 0.7730000019 0.6999999881
 2936.9492188 6.0784997940 12.500000000 0.1001884565 7.5578999519 0.3630749881 2.2645654678 15.452400208 61.762771606 1.2858999968 112.02917480 248.10229492 0.6873000264 0.7605000138 0.7046999931
 2937.1015625 5.4668998718 12.500000000 0.1023990363 7.8965005875 0.3788029850 2.2697007656 15.605299950 62.249622345 1.3144999743 112.19123840 249.55868530 0.6879000068 0.7699000239 0.7088000178
 2937.2539063 4.8548998833 12.500000000 0.1001044884 8.1496000290 0.3869839907 2.2589204311 15.748200417 62.283046722 1.3610999584 111.72135162 251.74879456 0.6890000105 0.8195999861 0.7117000222
 2937.4062500 4.2479000092 12.500000000 0.0975070223 8.3526000977 0.3657249808 2.2463369370 15.700699806 63.271129608 1.4263000488 111.35417175 253.63638306 0.6905999780 0.8504999876 0.7134000063
 2937.5588379 3.6886999607 12.500000000 0.0967006385 8.3559999466 0.3483990133 2.2395081520 15.393300056 64.816024780 1.5128999949 111.28770447 255.12640381 0.6927000284 0.8434000015 0.7135999799
 2937.7111816 3.2511000633 12.500000000 0.0972987190 8.0171003342 0.3715769947 2.2396972179 15.025899887 65.426223755 1.6250000000 111.47119904 258.23001099 0.6955000162 0.7771000266 0.7128000259
 2937.8635254 2.9911997318 12.500000000 0.0980987176 7.6050000191 0.4174630046 2.2444913387 14.924799919 64.663726807 1.7216999531 111.78699493 262.92709351 0.6991000175 0.7426999807 0.7113000154
 2938.0158691 2.8958001137 12.500000000 0.0980012789 7.2941999435 0.4455690086 2.2484905720 15.125900269 63.826084137 1.8107999563 112.19309998 268.57611084 0.7037000060 0.7544000149 0.7096999884
 2938.1684570 2.8849999905 12.500000000 0.0969019234 7.0735001564 0.4444800317 2.2481021881 15.316599846 63.584880829 1.8791999817 112.24740601 270.20910645 0.7095000148 0.8082000017 0.7089999914
 2938.3208008 2.8925998211 12.500000000 0.0955025628 6.9718999863 0.4134529829 2.2438082695 15.317999840 64.009422302 1.8967000246 111.92220306 266.55661011 0.7166000009 0.8416000009 0.7102000117
 2938.4731445 2.9077999592 12.500000000 0.0924064070 6.9465999603 0.3769370019 2.2331204414 15.198599815 64.924636841 1.8919999599 110.86289978 259.74539185 0.7251999974 0.7220000029 0.7139999866
