# LAS format log file from PETREL
# Project units are specified as depth units
#==================================================================
~Version information
VERS.   2.0:
WRAP.   NO:
#==================================================================
~Well
STRT .m      2901.1352539 :
STOP .m      2975.8112793 :
STEP .m     0.00000000 :
NULL .        -999.250000 :
COMP.           : COMPANY
WELL.  7/7-4 Orange   : WELL
FLD.            : FIELD
LOC.            : LOCATION
SRVC.           : SERVICE COMPANY
DATE.  2018-09-11 21:49:23   : Log Export Date {yyyy-MM-dd HH:mm:ss}
PROV.           : PROVINCE
UWI.   7/7-4   : UNIQUE WELL ID
API.            : API NUMBER
#==================================================================
~Curve
DEPT .m                   : DEPTH
CALI .in                  : CALI
BS .in                    : BS
DRHO .g/cm3               : DRHO
THOR .ppm                 : THOR
NPHI .m3/m3               : NPHI
RHOB .g/cm3               : RHOB
PEF .b/e                  : PEF
GR .gAPI                  : GR
URAN .ppm                 : URAN
DTC .us/ft                : DTC
DTS .us/ft                : DTS
RDEP .ohm.m               : RDEP
RMIC .ohm.m               : RMIC
RMED .ohm.m               : RMED
~Parameter
#==================================================================
~Ascii
# ...
 2957.3708496 12.705499649 12.500000000 0.0862060860 5.5869998932 0.2779610157 2.2081170082 15.491800308 44.424301147 0.8834999800 105.09899902 230.76770020 0.8208000064 0.8144000173 0.8184999824
 2957.5231934 12.718700409 12.500000000 0.0823060870 5.7059998512 0.3066450059 2.1986138821 15.310500145 42.834800720 0.8068000078 104.78170013 230.87989807 0.8255000114 0.8428000212 0.8253999949
 2957.6755371 12.759200096 12.500000000 0.0797032043 5.8840999603 0.3161709905 2.1949031353 15.195799828 43.293998718 0.7495999932 104.51059723 229.61259460 0.8302000165 0.8727999926 0.8320999742
 2957.8278809 12.800299644 12.500000000 0.0795980766 5.9969000816 0.3000530005 2.1971890926 15.221400261 43.760700226 0.7141000032 104.48919678 227.82600403 0.8349000216 0.8673999906 0.8386999965
 2957.9804688 12.810600281 12.500000000 0.0816958323 6.0145998001 0.2796910107 2.2019917965 15.380100250 43.814098358 0.7153000236 104.17810059  -999.250000 0.8393999934 0.8646000028 0.8450000286
 2958.1328125 12.792900085 12.500000000 0.0852939114 5.8866000175 0.2703440189 2.2066926956 15.616700172 44.248798370 0.7666000128 103.79389954 224.46029663 0.8435999751 0.8725000024 0.8511000276
 2958.2851563 12.765601158 12.500000000 0.0889945552 5.7392997742 0.2711400092 2.2102947235 15.754099846 43.626899719 0.8215000033 102.98200226 223.57650757 0.8475000262 0.8478999734 0.8569999933
 2958.4375000 12.733499527 12.500000000 0.0910955295 5.7206997871 0.2744629979 2.2113993168 15.729399681 41.353199005 0.8129000068 102.39109802 224.98139954 0.8511999846 0.8288999796 0.8623999953
 2958.5900879 12.702300072 12.500000000 0.0902025625 6.1886000633 0.2755260170 2.2083067894 15.687299728 40.105499268 0.6880999804 102.22979736 225.97990417 0.8547000289 0.8981999755 0.8672000170
 2958.7424316 12.693301201 12.500000000 0.0879035220 6.9868998528 0.2711859941 2.2037065029 15.720499992 41.098598480 0.5031999946 102.05599976 229.57879639 0.8579999804 0.9329000115 0.8713999987
 2958.8947754 12.704899788 12.500000000 0.0874993578 7.5605001450 0.2690159976 2.2049946785 15.797100067 42.997200012 0.3643999994 101.72270203 231.95300293 0.8612999916 0.9024000168 0.8745999932
 2959.0471191 12.712900162 12.500000000 0.0889974385 7.9633998871 0.2679490149 2.2107906342 15.862999916 45.169898987 0.2585000098 101.21589661 234.39239502 0.8646000028 0.8698999882 0.8769000173
 2959.1994629 12.714599609 12.500000000 0.0886038393 8.0670003891 0.2740019858 2.2118031979 15.735099792 47.929199219 0.2314999998 100.37879944 234.32429504 0.8679999709 0.8647999763 0.8783000112
 2959.3520508 12.721300125 12.500000000 0.0846076906 7.4545998573 0.2837940156 2.2063102722 15.302800179 51.315200806 0.4379999936 100.32450104 234.59840393 0.8716999888 0.8618999720 0.8790000081
 2959.5043945 12.732898712 12.500000000 0.0785099417 6.6532001495 0.2776429951 2.2027025223 14.907099724 54.348598480 0.7340999842 100.60198975 234.28010559 0.8755999804 0.9167000055 0.8791999817
 2959.6567383 12.753299713 12.500000000 0.0762003213 6.2453999519 0.2516269982 2.2165663242 14.892399788 55.252101898 0.9333999753 101.48880005 236.13250732 0.8799999952 1.0276999474 0.8794000149
 2959.8090820 12.786800385 12.500000000 0.0869525596 5.8867998123 0.2399519980 2.2655117512 15.087599754 53.814701080 1.1617000103 102.29530334 237.86489868 0.8847000003 0.9046999812 0.8798999786
 2959.9616699 12.816900253 12.500000000 0.1091631353 5.4421000481 0.2610860169 2.3351907730 15.192199707 51.669898987 1.4068000317 103.55970001 240.37550354 0.8898000121 0.8069999814 0.8812000155
 2960.1140137 12.822600365 12.500000000 0.1213890985 5.0769000053 0.2994970083 2.3643813133 15.216500282 50.454101563 1.5456999540 104.96150208 241.45249939 0.8952999711 0.7472000122 0.8834000230
 2960.2663574 12.815200806 12.500000000 0.1128198728 4.7595000267 0.3212070167 2.3305716515 15.273900032 50.655498505 1.6111999750 106.54740143 244.82159424 0.9011999965 0.7317000031 0.8867999911
 2960.4187012 12.814100266 12.500000000 0.0992396176 4.4275999069 0.3217480183 2.2855308056 15.452899933 51.654098511 1.6053999662 107.77639771 245.48849487 0.9072999954 0.7282000184 0.8914999962
 2960.5712891 12.823299408 12.500000000 0.0925076902 4.1579999924 0.3257800043 2.2636253834 15.722100258 52.061298370 1.5439000130 108.28240204 246.30619812 0.9136999846 0.7321000099 0.8971999884
 2960.7236328 12.836299896 12.500000000 0.0909015983 3.9664001465 0.3414239883 2.2560102940 15.885600090 51.053600311 1.4151999950 108.15869904 243.92239380 0.9201999903 0.7541000247 0.9035999775
 2960.8759766 12.838899612 12.500000000 0.0904006436 3.9087998867 0.3425220251 2.2496104240 15.806599617 49.064899445 1.2481000423 107.32900238 240.76409912 0.9266999960 0.8059999943 0.9101999998
 2961.0283203 12.828000069 12.500000000 0.0908983946 4.0851998329 0.3141680062 2.2456037998 15.532600403 47.082801819 1.0943000317 106.39759827 237.45150757 0.9333000183 0.9161000252 0.9164999723
 2961.1806641 12.815200806 12.500000000 0.0928929523 4.5130000114 0.2930540144 2.2492814064 15.291899681 45.655899048 0.9431999922 105.57920074 234.52742004 0.9397000074 1.0571999550 0.9223999977
 2961.3332520 12.815099716 12.500000000 0.0955958366 5.0020999908 0.3001590073 2.2599804401 15.218700409 44.693801880 0.8496000171 105.19439697 232.82518005 0.9460999966 1.1136000156 0.9283000231
 2961.4855957 12.822899818 12.500000000 0.0986948758 5.4099001884 0.3131709993 2.2747757435 15.253399849 44.361499786 0.7985000014 105.08200073 233.52980042 0.9520999789 0.9381999969 0.9347000122
 2961.6379395 12.829899788 12.500000000 0.1011967957 5.7112002373 0.3029009998 2.2849886417 15.383899689 44.375301361 0.7753000259 105.61769104 236.93099976 0.9575999975 0.7386999726 0.9426000118
 2961.7902832 12.826299667 12.500000000 0.0995096192 5.8889999390 0.2826620042 2.2773416042 15.651700020 44.477798462 0.8055999875 106.84040070 242.39509583 0.9623000026 0.7092000246 0.9526000023
 2961.9428711 12.824400902 12.500000000 0.0938099399 5.9759001732 0.2769249976 2.2547380924 15.856100082 45.361198425 0.8919000030 108.18699646 247.31660461 0.9656999707 0.7088999748 0.9646000266
 2962.0952148 12.841500282 12.500000000 0.0890064090 6.2927999496 0.2915710211 2.2372226715 15.773300171 47.665298462 0.9719999433 108.76799774 249.85350037 0.9675999880 0.6994000077 0.9779000282
 2962.2475586 12.872799873 12.500000000 0.0867032036 7.0184998512 0.3179090023 2.2321045399 15.510199547 50.383201599 0.9409999847 109.22049713 255.24380493 0.9671999812 0.7736999989 0.9904000163
 2962.3999023 12.890099525 12.500000000 0.0847070292 7.5226001740 0.3395690024 2.2297096252 15.343700409 51.803100586 0.8598999977 109.44419861 262.03768921 0.9642000198 1.0033999681 0.9998999834
 2962.5524902 12.892299652 12.500000000 0.0824035257 7.5680999756 0.3417430222 2.2246091366 15.450300217 51.799701691 0.8231999874 110.05609894 269.22628784 0.9581999779 1.0787999630 1.0037000179
 2962.7048340 12.907799721 12.500000000 0.0814006403 7.3859000206 0.3280969858 2.2201063633 15.718099594 51.719600677 0.8213999867 109.94249725 273.94479370 0.9491000175 1.0411000252 1.0002000332
 2962.8571777 12.938499451 12.500000000 0.0816993564 6.9250001907 0.3255099952 2.2169053555 15.798299789 52.294498444 0.8553000093 109.19129944 276.75460815 0.9366000295 1.0233999491 0.9884999990
 2963.0095215 12.966099739 12.500000000 0.0817006379 6.1842999458 0.3379869759 2.2117099762 15.582599640 52.486400604 0.9340999722 109.27659607 277.53851318 0.9208999872 1.0293999910 0.9692000151
 2963.1621094 12.990799904 12.500000000 0.0790057704 5.4141998291 0.3466799855 2.2011198997 15.350099564 51.270801544 1.0299999714 110.56860352 277.75430298 0.9023000002 1.0448000431 0.9438999891
 2963.3144531 13.012000084 12.500000000 0.0719131455 4.8860998154 0.3499689996 2.1829323769 15.259200096 49.573898315 1.0865000486 112.01059723 276.49679565 0.8815000057 0.9369999766 0.9149000049
 2963.4667969 13.019800186 12.500000000 0.0618163459 4.6184000969 0.3614189923 2.1609346867 15.192700386 48.080398560 1.0916999578 113.62050629 273.99499512 0.8587999940 0.7613000274 0.8838999867
