# LAS format log file from PETREL
# Project units are specified as depth units
#==================================================================
~Version information
VERS.   2.0:
WRAP.   NO:
#==================================================================
~Well
STRT .m      2901.1352539 :
STOP .m      2975.8112793 :
STEP .m     0.00000000 :
NULL .        -999.250000 :
COMP.           : COMPANY
WELL.  7/7-4 Orange   : WELL
FLD.            : FIELD
LOC.            : LOCATION
SRVC.           : SERVICE COMPANY
DATE.  2018-09-11 21:49:23   : Log Export Date {yyyy-MM-dd HH:mm:ss}
PROV.           : PROVINCE
UWI.   7/7-4   : UNIQUE WELL ID
API.            : API NUMBER
#==================================================================
~Curve
DEPT .m                   : DEPTH
CALI .in                  : CALI
BS .in                    : BS
DRHO .g/cm3               : DRHO
THOR .ppm                 : THOR
NPHI .m3/m3               : NPHI
RHOB .g/cm3               : RHOB
PEF .b/e                  : PEF
GR .gAPI                  : GR
URAN .ppm                 : URAN
DTC .us/ft                : DTC
DTS .us/ft                : DTS
RDEP .ohm.m               : RDEP
RMIC .ohm.m               : RMIC
RMED .ohm.m               : RMED
~Parameter
#==================================================================
~Ascii
# ...
 2907.3837891 13.162300110 12.500000000 0.0706000030 8.1184444427 0.3087689877 2.1814000607 15.667114258 57.757701874 0.9190458655 92.715209961 219.42561340 1.5166000128 1.3899307251 1.5569000244
 2907.5361328 13.097900391 12.500000000 0.0732999966 8.7684259415 0.3189710081 2.1854000092 15.785181999 62.478199005 0.9477193952 92.014801025 213.68917847 1.5249999762 1.4714665413 1.5657999516
 2907.6884766 13.033300400 12.500000000 0.0777999982 8.5346412659 0.3320989907 2.1940999031 15.803580284 62.135700226 1.0222698450 91.748497009 204.58206177 1.5307999849 1.5128737688 1.5730999708
 2907.8410645 13.019900322 12.500000000 0.0813999996 7.9356799126 0.3355099857 2.2037999630 15.710775375 57.997001648 1.1276843548 91.222702026 206.18260193 1.5335999727 1.4964295626 1.5780999660
 2907.9934082 13.065699577 12.500000000 0.0807000026 7.3996162415 0.3151829839 2.2065000534 15.637361526 53.079700470 0.9976695776 91.062103271 206.52777100 1.5329999924 1.4746536016 1.5802999735
 2908.1457520 13.125800133 12.500000000 0.0746999979 7.0981211662 0.2805039883 2.1960000992 15.716353416 48.711601257 0.6668147445 90.714202881 208.43891907 1.5288000107 1.5706884861 1.5789999962
 2908.2980957 13.150601387 12.500000000 0.0662000030 7.1112093925 0.2579579949 2.1756999493 15.863397598 45.514701843 0.4266083539 92.132003784 208.39115906 1.5206999779 1.7503217459 1.5729000568
 2908.4506836 13.119400024 12.500000000 0.0599999987 7.1797037125 0.2577079833 2.1570999622 15.876160622 44.529899597 0.3070473671 89.112297058 209.56164551 1.5087000132 1.7013676167 1.5607000589
 2908.6030273 13.049500465 12.500000000 0.0573999994 7.3685073853 0.2729319930 2.1461999416 15.763183594 46.464099884 0.2596474290 88.203598022 214.26240540 1.4927999973 1.6287811995 1.5413000584
 2908.7553711 12.981100082 12.500000000 0.0577999987 7.8720741272 0.2925719917 2.1442000866 15.735375404 50.878299713 0.3519134521 88.473098755 219.01359558 1.4732999802 1.4921712875 1.5139000416
 2908.9077148 12.950401306 12.500000000 0.0612000003 8.2918100357 0.3083789945 2.1521999836 15.875190735 55.283100128 0.6099453568 90.460601807 227.62664795 1.4507000446 1.2872561216 1.4788000584
 2909.0600586 12.950599670 12.500000000 0.0666000098 8.2978239059 0.3161479831 2.1672000885 16.043485641 58.098598480 0.8879426718 94.228401184 232.66377258 1.4254000187 1.1976716518 1.4373999834
 2909.2126465 12.958600044 12.500000000 0.0715000033 8.1251993179 0.3221609890 2.1818997860 16.143394470 59.967899323 1.2271726131 97.216400146 247.95487976 1.3983999491 1.2423963547 1.3919999599
 2909.3649902 12.960200310 12.500000000 0.0740000010 8.0005779266 0.3379159868 2.1905999184 16.186054230 61.783199310 1.5842653513 101.70839691 255.98564148 1.3703999519 1.2398976088 1.3452999592
 2909.5173340 12.952500343 12.500000000 0.0746999979 8.0503072739 0.3513109982 2.1932001114 16.121135712 63.948398590 1.8118563890 105.42819214 261.05108643 1.3423999548 1.1135673523 1.2999999523
 2909.6696777 12.949000359 12.500000000 0.0747999996 8.6800403595 0.3584159911 2.1925001144 15.936060905 67.443702698 1.7841544151 108.01709747 256.84906006 1.3150999546 0.9685599208 1.2583999634
 2909.8222656 12.960700035 12.500000000 0.0750000030 9.9534358978 0.3775019944 2.1905999184 15.726111412 71.968101501 1.4433012009 109.43859863 247.55905151 1.2894999981 0.9438233376 1.2221000195
 2909.9746094 12.981499672 12.500000000 0.0751999989 10.806431770 0.4190650284 2.1872000694 15.496572495 73.959602356 1.1628599167 108.04060364 233.87525940 1.2660000324 1.0136535168 1.1915999651
 2910.1269531 12.994299889 12.500000000 0.0764999986 11.262448311 0.4522269964 2.1860001087 15.244788170 70.906501770 0.8880775571 105.66130066 220.37741089 1.2452000380 1.1718779802 1.1669000387
 2910.2792969 12.998499870 12.500000000 0.0806000009 11.476727486 0.4443970025 2.1914999485 15.193999290 63.606098175 0.5001322031 101.67559814 211.47604370 1.2275999784 1.3452513218 1.1476000547
 2910.4318848 12.990699768 12.500000000 0.0860999972 9.8630914688 0.4148580134 2.2009999752 15.429047585 53.144500732 0.3962419033 96.943000793 207.82725525 1.2135000229 1.4394670725 1.1328999996
 2910.5842285 12.958800316 12.500000000 0.0903000012 6.3674259186 0.3829554021 2.2090001106 15.702617645 41.339900970 0.5965029001 92.955200195 208.56159973 1.2029999495 1.4288904667 1.1222000122
 2910.7365723 12.916400909 12.500000000 0.0901999995 3.7658274174 0.3353188038 2.2079999447 15.885554314 32.287899017 0.7853065729 90.670600891 210.00369263 1.1963000298 1.2357923985 1.1152000427
 2910.8889160 12.906200409 12.500000000 0.0822999999 3.0974586010 0.2910407186 2.1884000301 16.028629303 28.346500397 0.8517402411 90.111396790 213.74127197 1.1935000420 1.1065405607 1.1123000383
 2911.0415039 12.935099602 12.500000000 0.0684000030 3.0730428696 0.2771081030 2.1535000801 15.941088676 28.915899277 0.8769510388 90.297500610 216.97425842 1.1943999529 1.1318730116 1.1137000322
 2911.1938477 12.979299545 12.500000000 0.0560999997 3.5235538483 0.2853806019 2.1228001118 15.410678864 32.523799896 0.9239915609 91.413696289 221.07580566 1.1990000010 1.1545795202 1.1200000048
 2911.3461914 13.025898933 12.500000000 0.0500999987 4.1807732582 0.2864007354 2.1103999615 14.856891632 35.757900238 0.9185666442 92.164398193 223.76084900 1.2071000338 1.1417794228 1.1318000555
 2911.4985352 13.058798790 12.500000000 0.0504000001 4.6008810997 0.2721494138 2.1171998978 14.810898781 36.146400452 0.8353673220 92.591598511 225.84014893 1.2185000181 1.1288758516 1.1490999460
 2911.6508789 13.060299873 12.500000000 0.0544000007 4.9637494087 0.2605161965 2.1350998878 15.161936760 35.651000977 0.7525339723 93.234100342 226.05384827 1.2328000069 1.1137764454 1.1715999842
 2911.8034668 13.032199860 12.500000000 0.0575000010 5.4332628250 0.2606268823 2.1484999657 15.423164368 37.887699127 0.6485882998 94.041999817 225.14260864 1.2498999834 1.0992161036 1.1987999678
 2911.9558105 13.004799843 12.500000000 0.0568999983 6.2012877464 0.2727507055 2.1489000320 15.374882698 43.043701172 0.4890430868 94.863906860 223.23934937 1.2691999674 1.1354438066 1.2296999693
 2912.1081543 13.007299423 12.500000000 0.0560999997 6.6912875175 0.2924396694 2.1470000744 15.156888962 46.728298187 0.3913780451 94.836402893 220.40402222 1.2904000282 1.1627755165 1.2635999918
 2912.2604980 13.036899567 12.500000000 0.0582999997 6.2463846207 0.3119108975 2.1533999443 14.896005630 45.439098358 0.4401682615 94.791900635 216.55053711 1.3129999638 1.2099224329 1.2992000580
 2912.4130859 13.078200340 12.500000000 0.0625000000 5.5505409241 0.3136213720 2.1652998924 14.688621521 41.000499725 0.5452291369 94.741203308 213.20275879 1.3365999460 1.2867728472 1.3358000517
 2912.5654297 13.129699707 12.500000000 0.0662999973 5.2209568024 0.2804822624 2.1747999191 14.753676414 37.494201660 0.6166228652 93.795997620 210.06840515 1.3605999947 1.4654173851 1.3724000454
 2912.7177734 13.149100304 12.500000000 0.0674000010 5.3825106621 0.2391155958 2.1765999794 15.075148582 37.243198395 0.6308876872 92.218803406 209.37808228 1.3846000433 1.6009050608 1.4077999592
 2912.8701172 13.098999977 12.500000000 0.0671999976 6.2629089355 0.2219832689 2.1756999493 15.283198357 40.472698212 0.6232836246 90.087097168 207.01611328 1.4079999924 1.6038908958 1.4412000179
 2913.0227051 13.021200180 12.500000000 0.0702000037 7.3298153877 0.2359654903 2.1840000153 15.248774529 45.963298798 0.6758358479 90.000396729 215.63772583 1.4302999973 1.5357223749 1.4715000391
 2913.1750488 12.988200188 12.500000000 0.0759999976 7.9889340401 0.2677811384 2.1981000900 15.253419876 51.849700928 0.8117699027 90.414703369 221.16888428 1.4509999752 1.4804054499 1.4974999428
 2913.3273926 13.010899544 12.500000000 0.0800999999 8.1348543167 0.2942253351 2.2042996883 15.419352531 57.251598358 0.9176639318 91.026496887 225.52673340 1.4695999622 1.4838539362 1.5189000368
 2913.4797363 13.052200317 12.500000000 0.0830999985 7.9813623428 0.2985302508 2.2065000534 15.642845154 60.374698639 0.9574916363 90.711906433 227.23377991 1.4857000113 1.5174809694 1.5354000330
