# LAS format log file from PETREL
# Project units are specified as depth units
#==================================================================
~Version information
VERS.   2.0:
WRAP.   NO:
#==================================================================
~Well
STRT .m      2901.1352539 :
STOP .m      2975.8112793 :
STEP .m     0.00000000 :
NULL .        -999.250000 :
COMP.           : COMPANY
WELL.  7/7-4 Orange   : WELL
FLD.            : FIELD
LOC.            : LOCATION
SRVC.           : SERVICE COMPANY
DATE.  2018-09-11 21:49:23   : Log Export Date {yyyy-MM-dd HH:mm:ss}
PROV.           : PROVINCE
UWI.   7/7-4   : UNIQUE WELL ID
API.            : API NUMBER
#==================================================================
~Curve
DEPT .m                   : DEPTH
CALI .in                  : CALI
BS .in                    : BS
DRHO .g/cm3               : DRHO
THOR .ppm                 : THOR
NPHI .m3/m3               : NPHI
RHOB .g/cm3               : RHOB
PEF .b/e                  : PEF
GR .gAPI                  : GR
URAN .ppm                 : URAN
DTC .us/ft                : DTC
DTS .us/ft                : DTS
RDEP .ohm.m               : RDEP
RMIC .ohm.m               : RMIC
RMED .ohm.m               : RMED
~Parameter
#==================================================================
~Ascii
# ...
 2913.6320801 13.089799881 12.500000000 0.0870999992 7.9580554962 0.2918700576 2.2144000530 15.835941315 60.378601074 0.9522057772 91.919097900 227.66395569 1.4988000393 1.5680083036 1.5475000143
 2913.7846680 13.132499695 12.500000000 0.0905999988 8.1178236008 0.2929855585 2.2241001129 15.869725227 58.568698883 0.8932580352 93.571594238 226.44430542 1.5087000132 1.6353312731 1.5562000275
 2913.9370117 13.170299530 12.500000000 0.0930000022 8.3750820160 0.3000382781 2.2316999435 15.727060318 57.644401550 0.8177924752 96.229499817 224.07241821 1.5151000023 1.5827014446 1.5627000332
 2914.0893555 13.153400421 12.500000000 0.0945999995 8.6754207611 0.3113045394 2.2372999191 15.617445946 58.438301086 0.7507520914 97.056900024 221.02368164 1.5180000067 1.5210371017 1.5681999922
 2914.2416992 13.061900139 12.500000000 0.0930000022 8.8752946854 0.3379859030 2.2342998981 15.680679321 60.113800049 0.7208834887 96.255302429 217.70097351 1.5170999765 1.3573354483 1.5734000206
 2914.3942871 12.946700096 12.500000000 0.0873999968 8.8674049377 0.3697870970 2.2212998867 15.778456688 60.056400299 0.7108582854 94.284896851 214.05299377 1.5126999617 1.3801504374 1.5778000355
 2914.5466309 12.878000259 12.500000000 0.0820000023 7.5261821747 0.3510290384 2.2097001076 15.820270538 56.329101563 0.7915189266 92.471000671 209.37832642 1.5047999620 1.6143029928 1.5799000263
 2914.6989746 12.872699738 12.500000000 0.0803000033 5.5829887390 0.3029658198 2.2070000172 15.870176315 51.370899200 0.9279142618 90.025901794 207.33549500 1.4938999414 1.8654994965 1.5772999525
 2914.8513184 12.903200150 12.500000000 0.0817999989 5.1400237083 0.2771057487 2.2114000320 15.900747299 48.524898529 0.9367312789 88.530097961 207.83825684 1.4802999496 1.9278740883 1.5671000481
 2915.0039063 12.939700127 12.500000000 0.0848999992 5.3422503471 0.2689341605 2.2190999985 15.849539757 47.818000793 0.8937547207 87.603202820 214.56895447 1.4645999670 2.1603832245 1.5476000309
 2915.1562500 12.962300301 12.500000000 0.0877000019 5.4845271111 0.2607399821 2.2258000374 15.773106575 48.619998932 0.8482177854 88.803001404 222.32185364 1.4474999905 1.9988846779 1.5188000202
 2915.3085938 12.967800140 12.500000000 0.0903000012 6.8139271736 0.2605955005 2.2311000824 15.717717171 52.548301697 0.6720106006 90.907897949 228.84217834 1.4297000170 1.6771376133 1.4829000235
 2915.4609375 12.962900162 12.500000000 0.0944000036 9.4502220154 0.2832261920 2.2404000759 15.672192574 59.366901398 0.4293163419 93.884696960 233.19126892 1.4120999575 1.2640537024 1.4437999725
 2915.6132813 12.963298798 12.500000000 0.0995000005 11.208724022 0.3150729239 2.2548000813 15.690114975 65.995201111 0.3773859143 97.115303040 234.73367310 1.3952000141 1.0482838154 1.4062000513
 2915.7658691 12.991200447 12.500000000 0.1032999977 11.472762108 0.3390648961 2.2688000202 15.757687569 70.205398560 0.4935840070 99.516403198 235.33786011 1.3796000481 1.0384323597 1.3744000196
 2915.9182129 13.057399750 12.500000000 0.1046999991 11.303514481 0.3770180345 2.2785000801 15.692067146 71.241996765 0.6137217879 100.43029785 234.50897217 1.3658000231 1.1109163761 1.3510999680
 2916.0705566 13.138500214 12.500000000 0.1031000018 10.312997818 0.4238398969 2.2783999443 15.364122391 69.311500549 0.9395057559 98.646301270 231.87243652 1.3542000055 1.1837304831 1.3379000425
 2916.2229004 13.202400208 12.500000000 0.0982000083 8.8761186600 0.4352760315 2.2653999329 14.971376419 65.638900757 1.3798861504 96.146400452 227.59196472 1.3447999954 1.3896280527 1.3348000050
 2916.3754883 13.228099823 12.500000000 0.0939999968 7.2630634308 0.4095512927 2.2520999908 14.890991211 61.571498871 1.8086428642 92.415794373 224.63552856 1.3375999928 1.4068539143 1.3402999640
 2916.5278320 13.184200287 12.500000000 0.0945999995 5.7554454803 0.3606950343 2.2504999638 15.309562683 58.045700073 2.1960883141 90.165397644 222.49377441 1.3328000307 1.3305187225 1.3522000313
 2916.6801758 13.065299034 12.500000000 0.0978000015 5.0980858803 0.3107354939 2.2548999786 15.858533859 56.067501068 2.3757424355 89.086898804 220.98454285 1.3299000263 1.5293252468 1.3674000502
 2916.8325195 12.943300247 12.500000000 0.1005999967 4.8402452469 0.2911157906 2.2585000992 16.005781174 56.328098297 2.4644086361 89.473899841 219.45141602 1.3289999962 1.6698830128 1.3825999498
 2916.9851074 12.888699532 12.500000000 0.1022000015 4.8694195747 0.3039045930 2.2609000206 15.856554985 58.337699890 2.4693760872 88.718002319 217.77793884 1.3296999931 1.7840056419 1.3952000141
 2917.1374512 12.892600060 12.500000000 0.1008000001 5.1875901222 0.3357145190 2.2581999302 15.834714890 61.009799957 2.3370046616 88.924797058 217.75770569 1.3319000006 1.8167803288 1.4038000107
 2917.2897949 12.917698860 12.500000000 0.0960000008 5.5560894012 0.3614421785 2.2476999760 15.872588158 62.015499115 2.1524655819 89.615898132 216.38630676 1.3353999853 1.7419769764 1.4084000587
 2917.4421387 12.957599640 12.500000000 0.0908000022 5.9862465858 0.3666697145 2.2363998890 15.678740501 60.660900116 1.8813110590 88.502792358 216.26390076 1.3401999474 1.6027855873 1.4103000164
 2917.5944824 12.999600410 12.500000000 0.0901999995 6.3885841370 0.3403246403 2.2358999252 15.436363220 57.559501648 1.5763596296 86.750602722 214.94935608 1.3459000587 1.4693626165 1.4118000269
 2917.7470703 13.023400307 12.500000000 0.0967999995 6.0644745827 0.3005438745 2.2528998852 15.512411118 52.689899445 1.3639307022 83.944702148 212.30265808 1.3523999453 1.5715314150 1.4153000116
 2917.8994141 13.027400017 12.500000000 0.1049999967 5.2461075783 0.2692454755 2.2720999718 15.848565102 47.255500793 1.2488874197 83.131698608 210.32044983 1.3594000340 1.8308212757 1.4226000309
 2918.0517578 13.024499893 12.500000000 0.1027999967 4.8771948814 0.2530160844 2.2632999420 16.070505142 44.704200745 1.2410904169 83.685104370 208.66362000 1.3666000366 2.0310187340 1.4348000288
 2918.2041016 13.021699905 12.500000000 0.0869999975 4.8740782738 0.2508257926 2.2221000195 16.015222549 46.429798126 1.2974824905 84.149803162 206.73382568 1.3734999895 2.0422484875 1.4514000416
 2918.3566895 13.023199081 12.500000000 0.0671000034 4.9223885536 0.2561315596 2.1747999191 15.845677376 49.048999786 1.3494507074 84.114402771 204.62950134 1.3796000481 1.7599512339 1.4709000587
 2918.5090332 13.036199570 12.500000000 0.0518000014 4.7934088707 0.2579234540 2.1456999779 15.798399925 47.903301239 1.5215684175 85.396896362 203.60824585 1.3844000101 1.4645937681 1.4901000261
 2918.6613770 13.041999817 12.500000000 0.0423999988 4.3000988960 0.2428082228 2.1414999962 15.973952293 43.578098297 1.8760392666 89.792198181 206.31059265 1.3875000477 1.5861955881 1.5053999424
 2918.8137207 13.011699677 12.500000000 0.0348999985 4.0517749786 0.2253968418 2.1528999805 16.254049301 42.945598602 2.0875077248 98.761497498 208.42984009 1.3882000446 2.1447038651 1.5120999813
 2918.9663086 12.960000038 12.500000000 0.0277999993 4.9149184227 0.2246325314 2.1679999828 16.420583725 50.489601135 2.1540246010 102.13950348 213.50183105 1.3865000010 2.4582035542 1.5078999996
 2919.1186523 12.921099663 12.500000000 0.0274999999 6.9479961395 0.2497471124 2.1861000061 16.358480453 61.666999817 1.9429215193 102.61788940 217.22990417 1.3823000193 2.3335423470 1.4921000004
 2919.2709961 12.890299797 12.500000000 0.0401000008 8.5660018921 0.3001874983 2.2107999325 16.137495041 69.517997742 1.5199909210 99.431602478 222.72966003 1.3754999638 1.6116995811 1.4652999640
 2919.4233398 12.859299660 12.500000000 0.0604999997 9.0038671494 0.3483183682 2.2349998951 15.884062767 72.324996948 1.3273016214 96.718399048 231.55072021 1.3666000366 1.2996625900 1.4312000275
 2919.5756836 12.858300209 12.500000000 0.0759999976 9.2334451675 0.3523493111 2.2430999279 15.589004517 71.725700378 1.2658343315 95.265098572 236.73928833 1.3559999466 1.1516999006 1.3938000202
 2919.7282715 12.909000397 12.500000000 0.0794999972 9.5740489960 0.3371418118 2.2306001186 15.204373360 69.078796387 1.1624902487 94.708702087 241.34301758 1.3442000151 1.1518559456 1.3566000462
