# LAS format log file from PETREL
# Project units are specified as depth units
#==================================================================
~Version information
VERS.   2.0:
WRAP.   NO:
#==================================================================
~Well
STRT .m      2901.1352539 :
STOP .m      2975.8112793 :
STEP .m     0.00000000 :
NULL .        -999.250000 :
COMP.           : COMPANY
WELL.  7/7-4 Orange   : WELL
FLD.            : FIELD
LOC.            : LOCATION
SRVC.           : SERVICE COMPANY
DATE.  2018-09-11 21:49:23   : Log Export Date {yyyy-MM-dd HH:mm:ss}
PROV.           : PROVINCE
UWI.   7/7-4   : UNIQUE WELL ID
API.            : API NUMBER
#==================================================================
~Curve
DEPT .m                   : DEPTH
CALI .in                  : CALI
BS .in                    : BS
DRHO .g/cm3               : DRHO
THOR .ppm                 : THOR
NPHI .m3/m3               : NPHI
RHOB .g/cm3               : RHOB
PEF .b/e                  : PEF
GR .gAPI                  : GR
URAN .ppm                 : URAN
DTC .us/ft                : DTC
DTS .us/ft                : DTS
RDEP .ohm.m               : RDEP
RMIC .ohm.m               : RMIC
RMED .ohm.m               : RMED
~Parameter
#==================================================================
~Ascii
 2901.1352539 4.8642001152 12.500000000 0.0478000008 6.6702132225 0.2744079828 2.1531999111 15.332099915 56.292301178 0.9199272990 95.069107056 222.13114929 1.2704999447 1.4874510765 1.2498999834
 2901.2878418 6.7168993950 12.500000000 0.0678000003 6.4895935059 0.2805460095 2.1933000088 15.750900269 53.875099182 1.0627994537 94.516502380 220.71920776 1.2747999430 1.3318719864 1.2556999922
 2901.4401855 8.2589998245 12.500000000 0.0817999989 5.8322405815 0.2954950035 2.2230000496 16.192710876 49.825801849 1.4681878090 94.065902710 219.50201416 1.2781000137 1.1673338413 1.2606999874
 2901.5925293 9.1173000336 12.500000000 0.0793000013 5.1708979607 0.3141060174 2.2132000923 16.367124557 45.824901581 1.8348090649 93.735702515 215.88311768 1.2805000544 1.1261028051 1.2655999660
 2901.7448730 9.7510004044 12.500000000 0.0665000007 4.3573970795 0.3118599951 2.1775000095 16.261993408 41.761100769 2.0898990631 94.810897827 208.65724182 1.2819000483 1.1279952526 1.2709000111
 2901.8974609 10.350999832 12.500000000 0.0562999994 3.0447349548 0.2860769928 2.1473999023 15.974682808 37.178001404 2.2753767967 95.427604675 203.63374329 1.2822999954 1.1875028610 1.2767000198
 2902.0498047 10.927700043 12.500000000 0.0522000007 2.2143814564 0.2612549961 2.1319000721 15.640923500 32.752899170 2.0493872166 96.435699463 201.15875244 1.2815999985 1.2508451939 1.2826999426
 2902.2021484 11.470899582 12.500000000 0.0533000007 2.0782985687 0.2476510108 2.1298999786 15.467515945 29.608999252 1.6047582626 95.900794983 203.25021362 1.2798999548 1.3415387869 1.2877000570
 2902.3544922 11.958999634 12.500000000 0.0610999987 2.1404731274 0.2357270122 2.1476998329 15.518775940 28.679100037 1.3291422129 92.920196533 206.00491333 1.2769999504 1.4902915955 1.2904000282
 2902.5070801 12.379699707 12.500000000 0.0732999966 2.6252543926 0.2238699943 2.1789000034 15.607314110 30.786199570 1.1056360006 93.908393860 209.95225525 1.2730000019 1.4846274853 1.2892999649
 2902.6594238 12.727100372 12.500000000 0.0800999999 3.6091508865 0.2234690040 2.1949999332 15.588004112 35.578899384 0.8989896178 91.556396484 214.05516052 1.2678999901 1.3684723377 1.2835999727
 2902.8117676 12.980199814 12.500000000 0.0759999976 4.4513359070 0.2496190071 2.1816000938 15.520785332 41.823398590 1.0174432993 92.741401672 218.51911926 1.2619999647 1.2889140844 1.2730000019
 2902.9641113 13.116600037 12.500000000 0.0652000010 4.7854676247 0.2967219949 2.1535000801 15.317182541 46.511398315 1.2312037945 94.234596252 222.21047974 1.2553999424 1.2975621223 1.2584999800
 2903.1164551 13.160900116 12.500000000 0.0529999994 4.9524030685 0.3261830211 2.1257998943 14.818740845 46.962398529 1.1711022854 97.500999451 224.17723083 1.2486000061 1.2113226652 1.2419999838
 2903.2690430 13.165900230 12.500000000 0.0425999984 5.1421823502 0.3236819804 2.1040000916 14.484109879 44.995899200 1.0476797819 97.856697083 224.76152039 1.2419999838 1.0384681225 1.2256000042
 2903.4213867 13.165200233 12.500000000 0.0368999988 5.4179306030 0.3142890036 2.0915000439 14.857619286 45.329200745 0.9789059758 97.189392090 224.95367432 1.2358000278 0.9975214601 1.2115999460
 2903.5737305 13.162799835 12.500000000 0.0383000001 5.9985814095 0.3052809834 2.0934998989 15.612588882 48.999599457 0.8578857183 96.453399658 224.30537415 1.2305999994 1.0735132694 1.2015999556
 2903.7260742 13.163700104 12.500000000 0.0485000014 6.5475277901 0.2932389975 2.1187000275 16.030975342 52.135398865 0.7868038416 96.794998169 223.35366821 1.2266000509 1.2688585520 1.1965999603
 2903.8786621 13.171799660 12.500000000 0.0671999976 6.4386096001 0.2735100091 2.1703999043 16.004545212 50.508701324 0.8519594669 98.171203613 221.96759033 1.2242000103 1.3679839373 1.1965999603
 2904.0310059 13.177100182 12.500000000 0.0892999917 5.8804507256 0.2438190132 2.2328999043 15.809585571 45.350299835 0.9952440262 96.289505005 221.99855042 1.2236000299 1.4878969193 1.2014000416
 2904.1833496 13.165900230 12.500000000 0.1067999974 5.6008844376 0.2234520018 2.2808001041 15.529076576 43.062000275 1.0852582455 91.934997559 222.65339661 1.2249000072 1.6724356413 1.2101000547
 2904.3356934 13.146100044 12.500000000 0.1158000007 5.7786989212 0.2290229946 2.3034999371 15.211622238 48.050498962 1.2467570305 90.624603271 224.20983887 1.2281999588 1.3828774691 1.2221000195
 2904.4882813 13.141200066 12.500000000 0.1168000028 6.0277361870 0.2553290129 2.3050999641 15.034944534 57.015701294 1.6569470167 93.926696777 221.52919006 1.2337000370 1.1818091869 1.2375999689
 2904.6406250 13.152400017 12.500000000 0.1116999984 6.1644630432 0.2870079875 2.2939999104 15.109761238 62.189701080 1.9206386805 95.389099121 212.65907288 1.2411999702 1.1534994841 1.2568000555
 2904.7929688 13.158800125 12.500000000 0.1053000018 6.6404900551 0.3116410077 2.2815001011 15.357809067 60.049301147 1.8198808432 96.411300659 198.86744690 1.2506999969 1.1532722712 1.2805000544
 2904.9453125 13.152799606 12.500000000 0.0996999964 7.1330833435 0.3341619968 2.2695999146 15.573284149 55.780498505 1.6832947731 96.823303223 192.72956848 1.2620999813 1.1986286640 1.3092999458
 2905.0976563 13.144101143 12.500000000 0.0932999998 7.3093667030 0.3351489902 2.2511000633 15.558295250 54.164100647 1.6175297499 98.296600342 196.38655090 1.2752000093 1.4043965340 1.3430000544
 2905.2502441 13.141200066 12.500000000 0.0888999999 7.2862954140 0.2982560098 2.2358999252 15.333810806 52.342800140 1.5106420517 95.521003723 197.23648071 1.2898999453 2.0284533501 1.3805999756
 2905.4025879 13.146500587 12.500000000 0.0922000036 6.5670413971 0.2369869947 2.2439000607 15.062828064 47.133300781 1.2429639101 90.511001587 197.41256714 1.3057999611 3.0115115643 1.4193999767
 2905.5549316 13.151200294 12.500000000 0.1020999998 5.7202811241 0.1889880002 2.2739000320 14.852787971 40.624500275 0.9711080194 83.218299866 195.95542908 1.3227000237 3.5163021088 1.4558999538
 2905.7072754 13.148699760 12.500000000 0.1120000035 5.4595355988 0.1685210019 2.3069999218 14.756934166 35.946098328 0.8514494896 82.417098999 198.65551758 1.3402999640 3.0187902451 1.4865000248
 2905.8598633 13.140099525 12.500000000 0.1169999987 5.4198093414 0.1716309935 2.3266000748 14.814702988 35.676101685 0.8204905391 85.731300354 201.67274475 1.3582999706 2.7629127502 1.5089000463
 2906.0122070 13.136400223 12.500000000 0.1142999977 5.5475087166 0.1955150068 2.3231999874 14.925106049 41.777099609 0.9736836553 85.007202148 207.26989746 1.3765000105 2.5783245564 1.5219999552
 2906.1645508 13.143000603 12.500000000 0.1057000011 5.7398319244 0.2413870096 2.3004000187 14.875247955 50.641201019 1.2128494978 86.061408997 212.26205444 1.3947000504 1.5344887972 1.5267000198
 2906.3168945 13.152899742 12.500000000 0.0964000002 5.8845310211 0.2971670032 2.2734999657 14.743064880 55.906299591 1.3059831858 87.228599548 216.97296143 1.4127000570 1.4651925564 1.5263999701
 2906.4694824 13.156000137 12.500000000 0.0885000005 6.0288887024 0.3165110052 2.2493999004 14.877772331 56.192501068 1.2954168320 89.291397095 220.02357483 1.4302999973 1.4605251551 1.5242999792
 2906.6218262 13.154298782 12.500000000 0.0813999996 6.2128224373 0.3007539809 2.2267000675 15.257297516 54.516399384 1.2693789005 89.402603149 222.04084778 1.4473999739 1.4372770786 1.5232000351
 2906.7741699 13.154899597 12.500000000 0.0756999999 6.4765486717 0.2896640003 2.2072999477 15.493136406 52.530399323 1.1937211752 90.283500671 224.19226074 1.4637000561 1.4854224920 1.5248999596
 2906.9265137 13.159500122 12.500000000 0.0722000003 6.7564959526 0.2838279903 2.1937999725 15.476905823 50.504100800 1.0821595192 91.718002319 225.71870422 1.4790999889 1.5617759228 1.5298999548
 2907.0788574 13.171999931 12.500000000 0.0705000013 6.9415364265 0.2831239998 2.1856999397 15.441786766 49.630199432 0.9945995212 94.825309753 226.09475708 1.4932999611 1.5466911793 1.5376000404
 2907.2314453 13.183799744 12.500000000 0.0698999986 7.2782936096 0.2940480113 2.1816999912 15.523648262 51.963500977 0.9319583774 93.526000977 224.80656433 1.5059000254 1.4786148071 1.5470999479
