# LAS format log file from PETREL
# Project units are specified as depth units
#==================================================================
~Version information
VERS.   2.0:
WRAP.   NO:
#==================================================================
~Well
STRT .m      2901.1352539 :
STOP .m      2975.8112793 :
STEP .m     0.00000000 :
NULL .        -999.250000 :
COMP.           : COMPANY
WELL.  7/7-4 Orange   : WELL
FLD.            : FIELD
LOC.            : LOCATION
SRVC.           : SERVICE COMPANY
DATE.  2018-09-11 21:49:23   : Log Export Date {yyyy-MM-dd HH:mm:ss}
PROV.           : PROVINCE
UWI.   7/7-4   : UNIQUE WELL ID
API.            : API NUMBER
#==================================================================
~Curve
DEPT .m                   : DEPTH
CALI .in                  : CALI
BS .in                    : BS
DRHO .g/cm3               : DRHO
THOR .ppm                 : THOR
NPHI .m3/m3               : NPHI
RHOB .g/cm3               : RHOB
PEF .b/e                  : PEF
GR .gAPI                  : GR
URAN .ppm                 : URAN
DTC .us/ft                : DTC
DTS .us/ft                : DTS
RDEP .ohm.m               : RDEP
RMIC .ohm.m               : RMIC
RMED .ohm.m               : RMED
~Parameter
#==================================================================
~Ascii
# ...
 2944.8740234  -999.250000 12.500000000 0.0850041658 5.4154000282 0.2997179925 2.2157051563 16.034400940 61.195354462 1.3350000381 111.48990631 256.86428833 0.6657000184 0.7595000267 0.6710000038
 2945.0263672  -999.250000 12.500000000 0.0861951932 5.5620999336 0.3007259965 2.2268731594 15.750100136 61.727947235 1.4220999479 111.72920227 257.81698608 0.6654999852 0.7135999799 0.6704999804
 2945.1787109  -999.250000 12.500000000 0.0941855758 6.3201999664 0.3193300068 2.2562496662 15.691300392 64.331420898 1.4289000034 111.76719666 258.45071411 0.6661000252 0.6973999739 0.6707000136
 2945.3310547  -999.250000 12.500000000 0.1005858928 7.8496994972 0.3685809970 2.2744653225 15.877799988 68.051567078 1.2545000315 111.65119934 259.35470581 0.6675000191 0.6425999999 0.6715999842
 2945.4836426  -999.250000 12.500000000 0.0967102572 8.6743001938 0.4211650193 2.2586381435 16.009300232 69.434600830 1.1556999683 111.85399628 260.08221436 0.6697000265 0.6349999905 0.6733999848
 2945.6359863  -999.250000 12.500000000 0.0876144245 8.5988998413 0.4256240129 2.2271499634 15.961700439 67.909248352 1.2122000456 111.78189850 259.40600586 0.6726999879 0.6830999851 0.6762999892
 2945.7883301  -999.250000 12.500000000 0.0817073658 8.4695997238 0.3971350193 2.2053289413 15.938199997 66.049583435 1.2431000471 111.78150177 257.21310425 0.6765999794 0.7204999924 0.6804000139
 2945.9406738  -999.250000 12.500000000 0.0802019164 8.3299999237 0.3700230122 2.1973166466 16.085899353 65.637611389 1.2401000261 111.79560089 254.69490051 0.6812000275 0.7393000126 0.6859999895
 2946.0932617  -999.250000 12.500000000 0.0813974366 8.2954998016 0.3468979895 2.1981959343 16.228000641 66.574295044 1.1559000015 111.56040192 253.29750061 0.6866000295 0.7473000288 0.6927999854
 2946.2456055  -999.250000 12.500000000 0.0827980787 8.3423004150 0.3237729967 2.2028923035 16.188400269 67.210289001 1.0121999979 110.83879852 251.36979675 0.6927000284 0.7462000251 0.7008000016
 2946.3979492  -999.250000 12.500000000 0.0823019221 8.4197998047 0.3152180016 2.2049987316 15.961899757 65.097297668 0.8079000115 109.80480194 249.52920532 0.6994000077 0.7741000056 0.7095000148
 2946.5502930  -999.250000 12.500000000 0.0801035240 8.5317001343 0.3341009915 2.2037026882 15.645899773 61.466922760 0.5375000238 109.01519012 247.23359680 0.7067000270 0.8356999755 0.7185000181
 2946.7026367  -999.250000 12.500000000 0.0799974352 8.6263999939 0.3623639941 2.2058866024 15.436499596 59.674335480 0.3808999956 108.30590057 248.13980103 0.7142999768 0.9107000232 0.7272999883
 2946.8552246  -999.250000 12.500000000 0.0848897398 8.6941003799 0.3645040095 2.2195723057 15.449700356 61.122966766 0.3529999852 108.33280182 251.42309570 0.7222999930 0.8978999853 0.7357000113
 2947.0075684 3.4159998894 12.500000000 0.0940846130 8.7901000977 0.3470990062 2.2435595989 15.558699608 64.834350586 0.4201999903 108.49970245 254.40040588 0.7304000258 0.8809000254 0.7437999845
 2947.1599121 3.9616999626 12.500000000 0.1008916721 8.8787002563 0.3310779929 2.2608795166 15.623399734 68.469871521 0.5225999951 108.73750305 253.81430054 0.7386000156 0.8439999819 0.7516999841
 2947.3122559 5.3101005554 12.500000000 0.0994115397 8.8387002945 0.3152949810 2.2557353973 15.714500427 68.775337219 0.5756000280 109.06220245 251.96519470 0.7466999888 0.7932000160 0.7599999905
 2947.4648438 7.9987998009 12.500000000 0.0930105820 8.3000001907 0.3098160028 2.2370309830 15.933099747 64.159507751 0.6098999977 108.85150146 246.54100037 0.7545999885 0.7854999900 0.7689999938
 2947.6171875 10.895700455 12.500000000 0.0887051225 7.6627001762 0.3103770018 2.2238163948 16.179899216 57.730205536 0.5291000009 108.74478912 242.37109375 0.7620999813 0.8447999954 0.7789999843
 2947.7695313 12.419300079 12.500000000 0.0881000012 7.6174001694 0.3090220094 2.2206020355 16.243099213 53.580543518 0.3968999982 107.56020355 236.96440125 0.7689999938 0.8927999735 0.7899000049
 2947.9218750 12.667799950 12.500000000 0.0876031965 7.8003997803 0.3119820058 2.2192068100 16.102899551 52.166618347 0.3310000002 105.97669983 233.54241943 0.7752000093 0.9157000184 0.8009999990
 2948.0744629 12.665199280 12.500000000 0.0841067284 8.0431995392 0.3156870008 2.2130119801 15.911199570 51.282409668 0.2675000131 104.20970154 231.35850525 0.7807000279 0.9412999749 0.8113999963
 2948.2268066 12.672699928 12.500000000 0.0786089748 8.2097997665 0.2985430062 2.2049124241 15.832900047 50.193943024 0.2558000088 103.31029510 230.70959473 0.7851999998 0.9782000184 0.8201000094
 2948.3791504 12.669800758 12.500000000 0.0747051239 8.0802001953 0.2870990038 2.2021012306 15.900500298 49.178623199 0.3842999935 102.44239807 230.18850708 0.7889000177 0.9963999987 0.8260999918
 2948.5314941 12.652099609 12.500000000 0.0748980790 7.8023004532 0.2984479964 2.2067897320 15.888099670 48.586647034 0.6330999732 102.49649811 230.13400269 0.7915999889 1.0248999596 0.8287000060
 2948.6838379 12.635100365 12.500000000 0.0792826936 7.5236001015 0.3125149906 2.2167646885 15.613100052 48.534164429 0.8791000247 102.83270264 229.54150391 0.7935000062 1.0115000010 0.8277999759
 2948.8364258 12.629199982 12.500000000 0.0865874961 7.2227997780 0.3084149957 2.2303774357 15.239899635 50.089599609 1.1312999725 103.54660034 232.50509644 0.7947000265 0.9609000087 0.8240000010
 2948.9887695 12.630299568 12.500000000 0.0934903845 6.9453001022 0.2997429967 2.2430820465 15.086500168 56.751911163 1.8911999464 104.19550323 235.96569824 0.7954000235 0.8939999938 0.8180000186
 2949.1411133 12.636099815 12.500000000 0.0935038477 6.9326000214 0.2956060171 2.2432072163 15.223299980 71.407295227 3.3835000992 104.77329254 239.02340698 0.7957000136 0.9341999888 0.8109999895
 2949.2934570 12.647898674 12.500000000 0.0866243541 7.3102998734 0.2978290021 2.2314383984 15.458700180 86.091232300 4.5760002136 106.72219849 242.84860229 0.7957999706 0.9761999846 0.8040999770
 2949.4460449 12.662400246 12.500000000 0.0844987184 7.3582000732 0.3117710054 2.2367777824 15.599499702 87.570106506 4.6275000572 107.17590332 247.54969788 0.7958999872 0.8719000220 0.7983999848
 2949.5983887 12.669800758 12.500000000 0.0957772434 6.7031002045 0.3334180117 2.2758271694 15.646699905 74.774742126 3.4712998867 107.61650085 249.13632202 0.7958999872 0.7943999767 0.7947000265
 2949.7507324 12.667899132 12.500000000 0.1095810905 6.3667001724 0.3501589894 2.3132524490 15.620699883 60.577255249 1.9188001156 107.21640015 246.76739502 0.7960000038 0.7789999843 0.7935000062
 2949.9030762 12.662400246 12.500000000 0.1100108624 6.6128001213 0.3448490202 2.3064594269 15.513799667 53.106010437 1.1359000206 107.17769623 240.56129456 0.7961999774 0.7734000087 0.7950999737
 2950.0556641 12.652500153 12.500000000 0.1019134596 7.0475001335 0.3141050041 2.2745521069 15.411499977 50.174270630 0.7470999956 106.38279724 234.54849243 0.7962999940 0.7878999710 0.7990999818
 2950.2080078 12.638799667 12.500000000 0.0961076915 7.5359001160 0.2790060043 2.2532272339 15.406200409 48.724517822 0.3465999961 105.35790253 227.68020630 0.7962999940 0.7989000082 0.8050000072
 2950.3603516 12.629500389 12.500000000 0.0925057679 7.9029998779 0.2542960048 2.2427158356 15.461400032 47.848705292 0.1664000005 103.56809998 224.03410339 0.7961999774 0.8282999992 0.8118000031
 2950.5126953 12.629899979 12.500000000 0.0879080072 8.1898002625 0.2433090061 2.2301220894 15.520899773 46.633998871 0.1444000006 102.47180176 223.12370300 0.7955999970 0.9168999791 0.8180999756
 2950.6652832 12.635899544 12.500000000 0.0840051249 8.3024997711 0.2473850101 2.2169189453 15.558099747 44.938899994 0.1966000050 102.29190063 224.45710754 0.7946000099 1.0583000183 0.8227999806
 2950.8176270 12.642700195 12.500000000 0.0848961547 8.3170003891 0.2657519877 2.2144978046 15.588500023 44.388099670 0.2454999834 102.27380371 227.62622070 0.7929999828 1.0707999468 0.8245999813
 2950.9699707 12.650500298 12.500000000 0.0912881419 8.0302000046 0.2843770087 2.2274737358 15.695099831 46.459800720 0.3156999946 102.55709839 234.01339722 0.7908999920 0.9199000001 0.8230999708
