# LAS format log file from PETREL
# Project units are specified as depth units
#==================================================================
~Version information
VERS.   2.0:
WRAP.   NO:
#==================================================================
~Well
STRT .m      2901.1352539 :
STOP .m      2975.8112793 :
STEP .m     0.00000000 :
NULL .        -999.250000 :
COMP.           : COMPANY
WELL.  7/7-4 Orange   : WELL
FLD.            : FIELD
LOC.            : LOCATION
SRVC.           : SERVICE COMPANY
DATE.  2018-09-11 21:49:23   : Log Export Date {yyyy-MM-dd HH:mm:ss}
PROV.           : PROVINCE
UWI.   7/7-4   : UNIQUE WELL ID
API.            : API NUMBER
#==================================================================
~Curve
DEPT .m                   : DEPTH
CALI .in                  : CALI
BS .in                    : BS
DRHO .g/cm3               : DRHO
THOR .ppm                 : THOR
NPHI .m3/m3               : NPHI
RHOB .g/cm3               : RHOB
PEF .b/e                  : PEF
GR .gAPI                  : GR
URAN .ppm                 : URAN
DTC .us/ft                : DTC
DTS .us/ft                : DTS
RDEP .ohm.m               : RDEP
RMIC .ohm.m               : RMIC
RMED .ohm.m               : RMED
~Parameter
#==================================================================
~Ascii
# ...
 2969.8676758 13.132499695 12.500000000 0.0806092992 6.6255998611 0.3470119834 2.2064363956 16.023899078 57.601100922 1.2680000067 121.25009918 286.16690063 0.5110999942 0.5629000068 0.5259000063
 2970.0200195 13.055399895 12.500000000 0.0746089816 6.8330998421 0.3439250290 2.1883246899 16.032800674 59.165401459 1.2093000412 120.84929657 283.39810181 0.5138000250 0.5914999843 0.5293999910
 2970.1723633 12.997500420 12.500000000 0.0714038461 7.0742001534 0.3520259857 2.1819062233 16.079299927 61.251300812 1.1548999548 119.57029724 279.61099243 0.5163999796 0.5942000151 0.5325999856
 2970.3247070 12.970599174 12.500000000 0.0697051138 7.2712998390 0.3720930219 2.1797082424 16.109899521 63.546100616 1.1919000149 118.12290192 276.22750854 0.5188999772 0.5792000294 0.5353999734
 2970.4772949 12.948800087 12.500000000 0.0675035268 7.4024000168 0.4061679840 2.1746091843 15.980999947 64.640701294 1.2625000477 117.22609711 273.59219360 0.5212000012 0.5920000076 0.5375000238
 2970.6296387 12.933699608 12.500000000 0.0666999966 7.4692001343 0.4429949820 2.1715018749 15.762100220 64.091400146 1.3136999607 116.37950134 271.12829590 0.5235000253 0.6729000211 0.5386999846
 2970.7819824 12.932499886 12.500000000 0.0710903779 7.4875998497 0.4587399960 2.1814768314 15.675700188 63.419399261 1.3440999985 115.51641083 269.37118530 0.5256999731 0.7019000053 0.5389000177
 2970.9343262 12.932499886 12.500000000 0.0813635811 7.4890999794 0.4356249869 2.2071087360 15.754500389 63.709300995 1.3014999628 114.75759125 270.53271484 0.5281000137 0.6581000090 0.5379999876
 2971.0869141 12.922800064 12.500000000 0.0910868570 7.4347000122 0.4005709887 2.2310681343 15.854399681 63.963901520 1.1906000376 114.44110107 273.56900024 0.5306000113 0.6079000235 0.5364999771
 2971.2392578 12.901799202 12.500000000 0.0923022404 7.1834998131 0.3941400051 2.2311110497 15.936599731 63.395801544 1.0434000492 114.54699707 276.57720947 0.5335999727 0.6007000208 0.5347999930
 2971.3916016 12.881199837 12.500000000 0.0867099389 6.7423000336 0.4063819945 2.2127318382 16.060100555 61.948799133 0.9110000134 114.95590210 278.57070923 0.5371999741 0.6090000272 0.5335000157
 2971.5439453 12.887001038 12.500000000 0.0826048031 6.2704000473 0.4000479877 2.1991167068 16.215799332 60.556598663 0.8463000059 115.09660339 280.03549194 0.5414999723 0.5976999998 0.5333999991
 2971.6962891 12.935899734 12.500000000 0.0826967955 5.9502000809 0.3898440301 2.1987924576 16.251199722 59.899501801 0.8406000137 114.96900177 280.99899292 0.5465999842 0.5752999783 0.5351999998
 2971.8488770 13.001000404 12.500000000 0.0845967978 5.7960000038 0.3882389963 2.2045900822 16.044399261 59.581298828 0.8648999929 114.99780273 281.09600830 0.5526000261 0.5515000224 0.5393999815
 2972.0012207 13.033599854 12.500000000 0.0857987180 5.9120998383 0.3815630078 2.2088944912 15.679699898 58.578899384 0.8747000098 114.77980042 278.81851196 0.5595999956 0.5558999777 0.5464000106
 2972.1535645 13.019201279 12.500000000 0.0856009647 6.3379998207 0.3734470010 2.2096998692 15.374199867 56.845600128 0.8576999903 114.51940155 274.48220825 0.5674999952 0.6096000075 0.5562999845
 2972.3059082 12.969400406 12.500000000 0.0847025663 6.6795001030 0.3800700009 2.2106943130 15.240699768 54.830898285 0.8435000181 114.07669830 268.57089233 0.5762000084 0.6601999998 0.5691000223
 2972.4584961 12.898400307 12.500000000 0.0844003186 6.6598000526 0.3891279995 2.2162895203 15.224300385 53.734199524 0.8664000034 114.04219818 259.34719849 0.5856000185 0.6402999759 0.5845000148
 2972.6108398 12.834100723 12.500000000 0.0837019235 6.2512998581 0.3785359859 2.2207953930 15.251500130 54.444801331 0.9570999146 115.05770111 250.91409302 0.5953999758 0.6266000271 0.6017000079
 2972.7631836 12.807900429 12.500000000 0.0804060847 5.6736001968 0.3423809707 2.2153131962 15.289699554 55.024200439 1.0874999762 117.63610840 241.48168945 0.6053000093 0.6474999785 0.6197000146
 2972.9155273 12.817299843 12.500000000 0.0764115006 5.0373001099 0.3193539977 2.2045338154 15.346300125 51.946300507 1.1572999954 117.57479858 237.16459656 0.6151000261 0.7103999853 0.6370999813
 2973.0681152 12.822198868 12.500000000 0.0747012794 4.6196999550 0.3155190051 2.1996037960 15.514599800 46.595901489 1.0393999815 115.80909729 235.40261841 0.6244999766 0.8413000107 0.6525999904
 2973.2204590 12.799500465 12.500000000 0.0764958337 4.6518998146 0.3116169870 2.2063841820 15.819499969 43.029701233 0.8798000216 111.85910034 235.87959290 0.6331999898 0.9582999945 0.6650000215
 2973.3728027 12.762100220 12.500000000 0.0815907046 4.8638000488 0.2955729961 2.2250661850 16.092399597 41.853298187 0.7864000201 109.96880341 238.24580383 0.6410999894 0.9350000024 0.6736000180
 2973.5251465 12.716899872 12.500000000 0.0885884538 5.1222000122 0.2798559964 2.2499597073 16.144300461 42.100101471 0.6682999730 110.42919922 243.14729309 0.6480000019 0.8898000121 0.6780999899
 2973.6774902 12.666299820 12.500000000 0.0957769230 5.3496999741 0.2794480026 2.2729294300 16.007200241 44.077899933 0.5896999836 112.78949738 249.01579285 0.6538000107 0.8137999773 0.6791999936
 2973.8300781 12.638299942 12.500000000 0.1023900583 5.3236999512 0.2985979915 2.2887787819 15.899299622 47.086200714 0.6197999716 112.21269989 253.24569702 0.6585000157 0.7978000045 0.6779999733
 2973.9824219 12.663200378 12.500000000 0.1049983948 5.1441001892 0.3278650045 2.2877104282 16.002000809 48.695499420 0.6858000159 112.20939636 255.28527832 0.6622999907 0.7731999755 0.6755999923
 2974.1347656 12.720700264 12.500000000 0.1015073657 5.0388998985 0.3575080037 2.2671384811 16.249099731 48.866001129 0.7279999852 111.81729889 255.98039246 0.6651999950 0.7186999917 0.6733000278
 2974.2871094 12.767000198 12.500000000 0.0966147482 5.0608000755 0.3960410058 2.2430725098 16.332199097 49.384998322 0.7470999956 111.92960358 254.55529785 0.6674000025 0.6541000009 0.6717000008
 2974.4396973 12.788100243 12.500000000 0.0940028802 5.1979999542 0.4228570163 2.2291176319 16.075500488 50.329299927 0.7286999822 111.24120331 251.57351685 0.6690000296 0.6304000020 0.6715000272
 2974.5920410 12.802301407 12.500000000 0.0932009593 5.4767999649 0.4022850096 2.2244048119 15.704799652 50.414001465 0.6650999784 110.08419800 247.74639893 0.6700999737 0.6244000196 0.6725999713
 2974.7443848 12.809700012 12.500000000 0.0924016014 5.9675002098 0.3448329866 2.2234013081 15.505999565 49.636001587 0.5609999895 108.46800232 242.78309631 0.6707999706 0.6981999874 0.6746000051
 2974.8967285 12.791399956 12.500000000 0.0899095833 6.6486001015 0.3122500181 2.2209110260 15.432299614 48.784599304 0.4282999933 107.46350861 239.53790283 0.6712999940 0.7789000273 0.6771000028
 2975.0493164 12.757499695 12.500000000 0.0861060843 7.2470998764 0.3199410141 2.2153093815 15.299900055 48.219398499 0.3064000010 106.44599915 237.05830383 0.6717000008 0.8213000298 0.6794999838
 2975.2016602 12.741800308 12.500000000 0.0836028829 7.6241002083 0.3150959909 2.2118039131 15.179100037 47.906200409 0.2263000011 106.15849304 237.66810608 0.6718999743 0.8159000278 0.6811000109
 2975.3540039 12.774100304 12.500000000 0.0826012790 7.8692002296  -999.250000 2.2104027271 15.220700264 46.974201202 0.1789000034 105.53620148 240.05969238 0.6722000241 0.7825000286 0.6815999746
 2975.5063477 12.843099594 12.500000000 0.0815016031 7.6923999786  -999.250000 2.2067067623 15.329299927 45.296001434 0.2248000056 105.33660126 242.87860107 0.6725000143 0.7664999962 0.6808000207
 2975.6589355 12.905699730 12.500000000 0.0815987214 7.1139001846  -999.250000 2.2056987286 15.394499779 44.064201355 0.3346000016 105.70790100 246.64199829 0.6729000211 0.7889999747 0.6789000034
 2975.8112793 12.947799683 12.500000000 0.0846939161 6.5432000160  -999.250000 2.2144820690 15.500699997 43.463001251 0.4296999872 106.52510071 248.57000732 0.6733999848 0.8143000007 0.6761000156
